stop_id,stop_code,stop_name,stop_lat,stop_lon,stop_url
1,109303,Eusebi Güell - Joaquim Auger,41.34739796,2.0316491,http://www.ambmobilitat.cat/Principales/DatosParada.aspx?linea=0&version=0&cerca=1&punto=109303
2,100005,Av. Josep Tarradellas - Miquel Peiró i Victori,41.36270625,2.09630996,http://www.ambmobilitat.cat/Principales/DatosParada.aspx?linea=0&version=0&cerca=1&punto=100005
4,109239,Faigs - Julivert,41.28511572,1.96949119,http://www.ambmobilitat.cat/Principales/DatosParada.aspx?linea=0&version=0&cerca=1&punto=109239
5,109244,Faigs - Freixe,41.28410122,1.96846752,http://www.ambmobilitat.cat/Principales/DatosParada.aspx?linea=0&version=0&cerca=1&punto=109244
8,1461,Av. de Cornellà - Pont d'Esplugues,41.376825,2.088863,http://www.ambmobilitat.cat/Principales/DatosParada.aspx?linea=0&version=0&cerca=1&punto=001461
9,109249,Josep Anselm Clavé - Oriol,41.37133591,2.09139329,http://www.ambmobilitat.cat/Principales/DatosParada.aspx?linea=0&version=0&cerca=1&punto=109249
11,3047,Aeroport - Terminal T2-A B (Sentit Terminal T1),41.302872,2.075775,http://www.ambmobilitat.cat/Principales/DatosParada.aspx?linea=0&version=0&cerca=1&punto=003047
12,109198,Terminal Aeroport T1,41.28776664,2.07322414,http://www.ambmobilitat.cat/Principales/DatosParada.aspx?linea=0&version=0&cerca=1&punto=109198
13,3048,Aeroport - Terminal T2-B (Sentit Terminal T1),41.304126,2.07926,http://www.ambmobilitat.cat/Principales/DatosParada.aspx?linea=0&version=0&cerca=1&punto=003048
14,3041,Aeroport - Terminal T2-C (Sentit Terminal T1),41.305002,2.081808,http://www.ambmobilitat.cat/Principales/DatosParada.aspx?linea=0&version=0&cerca=1&punto=003041
15,109196,Terminal Aeroport T1,41.28791756,2.07312921,http://www.ambmobilitat.cat/Principales/DatosParada.aspx?linea=0&version=0&cerca=1&punto=109196
17,1704,Les Agudes - Costabona (a Torre Baró-Vallbona),41.462708,2.177347,http://www.ambmobilitat.cat/Principales/DatosParada.aspx?linea=0&version=0&cerca=1&punto=001704
23,1703,Les Agudes (a Torre Baró-Vallbona),41.46159,2.1759396,http://www.ambmobilitat.cat/Principales/DatosParada.aspx?linea=0&version=0&cerca=1&punto=001703
28,100043,Agustina d'Aragó - García Lorca,41.28796525,1.98002582,http://www.ambmobilitat.cat/Principales/DatosParada.aspx?linea=0&version=0&cerca=1&punto=100043
30,752,Aiguablava - Pedrosa,41.448923,2.182143,http://www.ambmobilitat.cat/Principales/DatosParada.aspx?linea=0&version=0&cerca=1&punto=000752
32,753,Aiguablava - La Fosca,41.448396,2.181763,http://www.ambmobilitat.cat/Principales/DatosParada.aspx?linea=0&version=0&cerca=1&punto=000753
33,1548,Aiguablava - Nou Barris,41.447422,2.1805363,http://www.ambmobilitat.cat/Principales/DatosParada.aspx?linea=0&version=0&cerca=1&punto=001548
34,471,Aiguablava - Via Favència,41.447098,2.180495,http://www.ambmobilitat.cat/Principales/DatosParada.aspx?linea=0&version=0&cerca=1&punto=000471
36,100057,Pg. Olof Palme - Apenins,41.45404917,2.2265765,http://www.ambmobilitat.cat/Principales/DatosParada.aspx?linea=0&version=0&cerca=1&punto=100057
37,497,Alcántara - Garigliano,41.445521,2.17243,http://www.ambmobilitat.cat/Principales/DatosParada.aspx?linea=0&version=0&cerca=1&punto=000497
47,3350,Av. Alfons XIII - Aribau,41.434588,2.219009,http://www.ambmobilitat.cat/Principales/DatosParada.aspx?linea=0&version=0&cerca=1&punto=003350
48,3352,Av. Alfons XIII - Andrés Segovia,41.436616,2.22282,http://www.ambmobilitat.cat/Principales/DatosParada.aspx?linea=0&version=0&cerca=1&punto=003352
49,3353,Av. Alfons XIII - Sant Lluc,41.43939534,2.22836437,http://www.ambmobilitat.cat/Principales/DatosParada.aspx?linea=0&version=0&cerca=1&punto=003353
51,2998,Av. Alfons XIII - Sant Lluc,41.43949,2.228244,http://www.ambmobilitat.cat/Principales/DatosParada.aspx?linea=0&version=0&cerca=1&punto=002998
56,1604,Pg. Marítim - Almirall Cervera,41.37919192,2.1921682,http://www.ambmobilitat.cat/Principales/DatosParada.aspx?linea=0&version=0&cerca=1&punto=001604
57,1605,Pepe Rubianes,41.378437,2.1901088,http://www.ambmobilitat.cat/Principales/DatosParada.aspx?linea=0&version=0&cerca=1&punto=001605
60,1231,Almogàvers - Roger de Flor,41.39189965,2.18283364,http://www.ambmobilitat.cat/Principales/DatosParada.aspx?linea=0&version=0&cerca=1&punto=001231
62,950,Almogàvers - Marina,41.39431838,2.18618443,http://www.ambmobilitat.cat/Principales/DatosParada.aspx?linea=0&version=0&cerca=1&punto=000950
63,1606,Pg. Marítim - Pepe Rubianes,41.3791208,2.1923356,http://www.ambmobilitat.cat/Principales/DatosParada.aspx?linea=0&version=0&cerca=1&punto=001606
69,100111,Amadeu Torner - Av. del Carrilet,41.36383951,2.12128052,http://www.ambmobilitat.cat/Principales/DatosParada.aspx?linea=0&version=0&cerca=1&punto=100111
70,100112,Amadeu Torner - Aprestadora,41.36206935,2.12213473,http://www.ambmobilitat.cat/Principales/DatosParada.aspx?linea=0&version=0&cerca=1&punto=100112
75,100118,Àngel Guimerà - Av. Baix Llobregat,41.37251063,2.0771704,http://www.ambmobilitat.cat/Principales/DatosParada.aspx?linea=0&version=0&cerca=1&punto=100118
77,100121,Àngel Guimerà - Josep Argemí,41.37452879,2.0793255,http://www.ambmobilitat.cat/Principales/DatosParada.aspx?linea=0&version=0&cerca=1&punto=100121
83,100131,Metro Badalona Pompeu Fabra,41.44926521,2.24367188,http://www.ambmobilitat.cat/Principales/DatosParada.aspx?linea=0&version=0&cerca=1&punto=100131
86,100136,Pau Claris - Av. Marquès de Mont-Roig,41.44089148,2.23320555,http://www.ambmobilitat.cat/Principales/DatosParada.aspx?linea=0&version=0&cerca=1&punto=100136
88,661,Aragó - Independència,41.407251,2.184862,http://www.ambmobilitat.cat/Principales/DatosParada.aspx?linea=0&version=0&cerca=1&punto=000661
89,236,Aragó - Enamorats,41.405834,2.182955,http://www.ambmobilitat.cat/Principales/DatosParada.aspx?linea=0&version=0&cerca=1&punto=000236
92,1453,Pg. Guayaquil - Arbeca,41.43948957,2.20814294,http://www.ambmobilitat.cat/Principales/DatosParada.aspx?linea=0&version=0&cerca=1&punto=001453
98,1386,Aribau - Diagonal,41.3951869,2.15051043,http://www.ambmobilitat.cat/Principales/DatosParada.aspx?linea=0&version=0&cerca=1&punto=001386
99,58,Aribau - Aragó,41.387899,2.160079,http://www.ambmobilitat.cat/Principales/DatosParada.aspx?linea=0&version=0&cerca=1&punto=000058
100,316,Aribau - Gran Via,41.386042,2.162533,http://www.ambmobilitat.cat/Principales/DatosParada.aspx?linea=0&version=0&cerca=1&punto=000316
101,1036,Aribau - Laforja,41.39796794,2.14735659,http://www.ambmobilitat.cat/Principales/DatosParada.aspx?linea=0&version=0&cerca=1&punto=001036
103,222,Aribau - Còrsega,41.392292,2.154352,http://www.ambmobilitat.cat/Principales/DatosParada.aspx?linea=0&version=0&cerca=1&punto=000222
105,842,Aribau - Mallorca,41.389687,2.15771,http://www.ambmobilitat.cat/Principales/DatosParada.aspx?linea=0&version=0&cerca=1&punto=000842
108,3662,Arístides Maillol - Trav. de les Corts,41.378352,2.121243,http://www.ambmobilitat.cat/Principales/DatosParada.aspx?linea=0&version=0&cerca=1&punto=003662
109,1373,Arizala - Les Corts,41.37860905,2.12382015,http://www.ambmobilitat.cat/Principales/DatosParada.aspx?linea=0&version=0&cerca=1&punto=001373
110,856,Arizala - Av. Madrid,41.37650905,2.12513421,http://www.ambmobilitat.cat/Principales/DatosParada.aspx?linea=0&version=0&cerca=1&punto=000856
111,100170,Armenteres - Av. del Sol,41.37537011,2.0458315,http://www.ambmobilitat.cat/Principales/DatosParada.aspx?linea=0&version=0&cerca=1&punto=100170
113,100172,Palau Falguera - Mercat Municipal,41.37985205,2.04354394,http://www.ambmobilitat.cat/Principales/DatosParada.aspx?linea=0&version=0&cerca=1&punto=100172
114,100173,Armenteres - Joaquim Castell,41.37614796,2.0452844,http://www.ambmobilitat.cat/Principales/DatosParada.aspx?linea=0&version=0&cerca=1&punto=100173
120,100185,Ausiàs Marc - Bailen,41.39205702,2.17655093,http://www.ambmobilitat.cat/Principales/DatosParada.aspx?linea=0&version=0&cerca=1&punto=100185
121,100186,Ausiàs Marc - Roger de Flor,41.39373197,2.17870371,http://www.ambmobilitat.cat/Principales/DatosParada.aspx?linea=0&version=0&cerca=1&punto=100186
125,951,Ausiàs Marc - Nàpols,41.39539482,2.18090282,http://www.ambmobilitat.cat/Principales/DatosParada.aspx?linea=0&version=0&cerca=1&punto=000951
128,100199,Av. Europa - Cadaqués,41.27039872,2.02880199,http://www.ambmobilitat.cat/Principales/DatosParada.aspx?linea=0&version=0&cerca=1&punto=100199
138,100209,Autovia Castelldefels - Centre Comercial,41.33408921,2.09092351,http://www.ambmobilitat.cat/Principales/DatosParada.aspx?linea=0&version=0&cerca=1&punto=100209
141,100214,Autovia de Castelldefels - Km. 186,41.27228053,2.03841668,http://www.ambmobilitat.cat/Principales/DatosParada.aspx?linea=0&version=0&cerca=1&punto=100214
145,104756,Autovia de Castelldefels - Km. 191 - Mas Blau,41.31393377,2.06891716,http://www.ambmobilitat.cat/Principales/DatosParada.aspx?linea=0&version=0&cerca=1&punto=104756
150,1902,Av. de Barcelona - dels Frares,41.37062301,2.07603917,http://www.ambmobilitat.cat/Principales/DatosParada.aspx?linea=0&version=0&cerca=1&punto=001902
153,3351,Av. Alfons XIII - Av. del Maresme,41.436504,2.222934,http://www.ambmobilitat.cat/Principales/DatosParada.aspx?linea=0&version=0&cerca=1&punto=003351
154,100236,Av. Alfons XIII - Cervantes,41.44323978,2.23560116,http://www.ambmobilitat.cat/Principales/DatosParada.aspx?linea=0&version=0&cerca=1&punto=100236
155,2997,Av. Alfons XIII - Pau Claris,41.44108627,2.23118947,http://www.ambmobilitat.cat/Principales/DatosParada.aspx?linea=0&version=0&cerca=1&punto=002997
156,3349,Av. Alfons XIII - Simancas,41.43503822,2.2200746,http://www.ambmobilitat.cat/Principales/DatosParada.aspx?linea=0&version=0&cerca=1&punto=003349
158,1761,Av. l'Alzinar - Transversal,41.46163,2.182768,http://www.ambmobilitat.cat/Principales/DatosParada.aspx?linea=0&version=0&cerca=1&punto=001761
159,100246,Av. Amèrica - Pl. de la Cultura,41.35130606,2.11480236,http://www.ambmobilitat.cat/Principales/DatosParada.aspx?linea=0&version=0&cerca=1&punto=100246
160,100247,Amèrica - Av. Puig i Castellar,41.45787603,2.20472751,http://www.ambmobilitat.cat/Principales/DatosParada.aspx?linea=0&version=0&cerca=1&punto=100247
161,100248,Av. Amèrica - Estació FGC Gornal ,41.3533881,2.11519263,http://www.ambmobilitat.cat/Principales/DatosParada.aspx?linea=0&version=0&cerca=1&punto=100248
162,100249,Av. Amèrica - Av. Granvia,41.35142492,2.11503815,http://www.ambmobilitat.cat/Principales/DatosParada.aspx?linea=0&version=0&cerca=1&punto=100249
164,608,Av. Anselm Clavé - Enric Borràs,41.33269162,2.09732713,http://www.ambmobilitat.cat/Principales/DatosParada.aspx?linea=0&version=0&cerca=1&punto=000608
165,1097,Av. Anselm Clavé - Manuel Bertrand,41.3317439,2.09501267,http://www.ambmobilitat.cat/Principales/DatosParada.aspx?linea=0&version=0&cerca=1&punto=001097
166,1553,Av. Anselm Clavé - Les Moreres,41.334075,2.100882,http://www.ambmobilitat.cat/Principales/DatosParada.aspx?linea=0&version=0&cerca=1&punto=001553
168,100256,Av. Anselm de Riu - Amèrica,41.45962288,2.20225119,http://www.ambmobilitat.cat/Principales/DatosParada.aspx?linea=0&version=0&cerca=1&punto=100256
169,100258,Av. Anselm de  Riu - Eiximenis,41.46406672,2.20291855,http://www.ambmobilitat.cat/Principales/DatosParada.aspx?linea=0&version=0&cerca=1&punto=100258
171,100260,Av. Anselm de  Riu - Milton,41.46275421,2.20160449,http://www.ambmobilitat.cat/Principales/DatosParada.aspx?linea=0&version=0&cerca=1&punto=100260
172,100261,Av. Anselm de Riu - Santiago Rusiñol,41.46163949,2.20125979,http://www.ambmobilitat.cat/Principales/DatosParada.aspx?linea=0&version=0&cerca=1&punto=100261
173,100262,Av. Anselm de Riu - Sants,41.46004337,2.20219376,http://www.ambmobilitat.cat/Principales/DatosParada.aspx?linea=0&version=0&cerca=1&punto=100262
174,100263,Av. d'Aragó - Av. General Prim,41.33733711,2.03003942,http://www.ambmobilitat.cat/Principales/DatosParada.aspx?linea=0&version=0&cerca=1&punto=100263
175,100267,Av. Bac de Roda - Pirineus,41.46234404,2.24767595,http://www.ambmobilitat.cat/Principales/DatosParada.aspx?linea=0&version=0&cerca=1&punto=100267
176,100268,Av. Morera - Av. de Roma,41.46215586,2.24830177,http://www.ambmobilitat.cat/Principales/DatosParada.aspx?linea=0&version=0&cerca=1&punto=100268
177,100269,Av. Bac de Roda - Pl. d'Enric Morera,41.46166111,2.24712025,http://www.ambmobilitat.cat/Principales/DatosParada.aspx?linea=0&version=0&cerca=1&punto=100269
178,100270,Sant Martí de l'Erm - Marquès de Monistrol,41.37163534,2.07071055,http://www.ambmobilitat.cat/Principales/DatosParada.aspx?linea=0&version=0&cerca=1&punto=100270
184,2638,Av. Baix Llobregat - Enric Granados,41.37018,2.078688,http://www.ambmobilitat.cat/Principales/DatosParada.aspx?linea=0&version=0&cerca=1&punto=002638
185,1919,Av. Baix Llobregat - St. Martí de l'Erm,41.373772,2.073974,http://www.ambmobilitat.cat/Principales/DatosParada.aspx?linea=0&version=0&cerca=1&punto=001919
189,100770,Av. del Maresme - Av. Marquès de Mont-Roig,41.43418457,2.2276193,http://www.ambmobilitat.cat/Principales/DatosParada.aspx?linea=0&version=0&cerca=1&punto=100770
190,100771,Av. del  Maresme - Huelva,41.43543104,2.22216604,http://www.ambmobilitat.cat/Principales/DatosParada.aspx?linea=0&version=0&cerca=1&punto=100771
191,100772,Av. del Maresme - Jerez de la Frontera,41.43505176,2.22580686,http://www.ambmobilitat.cat/Principales/DatosParada.aspx?linea=0&version=0&cerca=1&punto=100772
192,100773,Av. Maria Girona - Sta. Creu de Calafell,41.34724176,2.04691306,http://www.ambmobilitat.cat/Principales/DatosParada.aspx?linea=0&version=0&cerca=1&punto=100773
193,100774,Av. Maria Girona - Hospital,41.34702255,2.04691556,http://www.ambmobilitat.cat/Principales/DatosParada.aspx?linea=0&version=0&cerca=1&punto=100774
203,100786,Av. Marquès de Mont-Roig - Antoni  Bori,41.44098802,2.23447048,http://www.ambmobilitat.cat/Principales/DatosParada.aspx?linea=0&version=0&cerca=1&punto=100786
204,100787,Av. Marquès de Mont-Roig - Ponent,41.44217096,2.23589918,http://www.ambmobilitat.cat/Principales/DatosParada.aspx?linea=0&version=0&cerca=1&punto=100787
205,100789,Av. Marquès de Mont-Roig - Sant Lluc,41.4379498,2.23072521,http://www.ambmobilitat.cat/Principales/DatosParada.aspx?linea=0&version=0&cerca=1&punto=100789
206,100790,Av. Marquès de Mont-Roig - Vélez Rubio,41.4349942,2.22742281,http://www.ambmobilitat.cat/Principales/DatosParada.aspx?linea=0&version=0&cerca=1&punto=100790
207,100791,Av. Marquès de Sant Mori - Quevedo,41.44298467,2.22476224,http://www.ambmobilitat.cat/Principales/DatosParada.aspx?linea=0&version=0&cerca=1&punto=100791
209,100793,Av. Martí Pujol - Barcelona,41.45289998,2.24349846,http://www.ambmobilitat.cat/Principales/DatosParada.aspx?linea=0&version=0&cerca=1&punto=100793
210,100795,Av. Martí Pujol - Ignasi Iglésias,41.44830969,2.24628568,http://www.ambmobilitat.cat/Principales/DatosParada.aspx?linea=0&version=0&cerca=1&punto=100795
211,100797,Av. Martí Pujol - Rector,41.4508427,2.24463809,http://www.ambmobilitat.cat/Principales/DatosParada.aspx?linea=0&version=0&cerca=1&punto=100797
212,100800,Av. Martí Pujol - Via Augusta,41.45053855,2.24501901,http://www.ambmobilitat.cat/Principales/DatosParada.aspx?linea=0&version=0&cerca=1&punto=100800
214,100804,Av. Mas-Ram - del Boix,41.47657017,2.25394019,http://www.ambmobilitat.cat/Principales/DatosParada.aspx?linea=0&version=0&cerca=1&punto=100804
215,100805,Av. Mas-Ram - Palmeres,41.47608566,2.25362399,http://www.ambmobilitat.cat/Principales/DatosParada.aspx?linea=0&version=0&cerca=1&punto=100805
216,100806,Av. Mas-Ram - Pl. Enric Parellada,41.4769489,2.2523867,http://www.ambmobilitat.cat/Principales/DatosParada.aspx?linea=0&version=0&cerca=1&punto=100806
217,511,Meridiana - Cardenal Tedeschini,41.42502,2.186341,http://www.ambmobilitat.cat/Principales/DatosParada.aspx?linea=0&version=0&cerca=1&punto=000511
218,1778,Meridiana - S'Agaró,41.448149,2.187808,http://www.ambmobilitat.cat/Principales/DatosParada.aspx?linea=0&version=0&cerca=1&punto=001778
219,885,Meridiana - Garbí,41.452108,2.188738,http://www.ambmobilitat.cat/Principales/DatosParada.aspx?linea=0&version=0&cerca=1&punto=000885
220,432,Meridiana - Parc de Can Dragó,41.43567,2.183832,http://www.ambmobilitat.cat/Principales/DatosParada.aspx?linea=0&version=0&cerca=1&punto=000432
221,328,Meridiana - Pegaso,41.42542169,2.18654471,http://www.ambmobilitat.cat/Principales/DatosParada.aspx?linea=0&version=0&cerca=1&punto=000328
222,1489,Meridiana - València,41.411071,2.187053,http://www.ambmobilitat.cat/Principales/DatosParada.aspx?linea=0&version=0&cerca=1&punto=001489
224,1007,Meridiana - Biscaia,41.417607,2.18675,http://www.ambmobilitat.cat/Principales/DatosParada.aspx?linea=0&version=0&cerca=1&punto=001007
228,1240,Meridiana - Av. Rio de Janeiro,41.443041,2.18621,http://www.ambmobilitat.cat/Principales/DatosParada.aspx?linea=0&version=0&cerca=1&punto=001240
229,455,Meridiana - La Sagrera,41.421937,2.18676,http://www.ambmobilitat.cat/Principales/DatosParada.aspx?linea=0&version=0&cerca=1&punto=000455
230,1663,Meridiana - Pl. dels Jardins d'Elx,41.423542,2.1871073,http://www.ambmobilitat.cat/Principales/DatosParada.aspx?linea=0&version=0&cerca=1&punto=001663
231,362,Meridiana - Escòcia,41.429143,2.183648,http://www.ambmobilitat.cat/Principales/DatosParada.aspx?linea=0&version=0&cerca=1&punto=000362
233,1494,Meridiana - Pl. del Doctor Serrat,41.410909,2.186716,http://www.ambmobilitat.cat/Principales/DatosParada.aspx?linea=0&version=0&cerca=1&punto=001494
234,705,Meridiana - Josep Estivill,41.41632557,2.18705836,http://www.ambmobilitat.cat/Principales/DatosParada.aspx?linea=0&version=0&cerca=1&punto=000705
235,1166,Meridiana - Estació d'Autobusos Fabra i Puig,41.43070169,2.18297482,http://www.ambmobilitat.cat/Principales/DatosParada.aspx?linea=0&version=0&cerca=1&punto=001166
237,1302,Buenaventura Muñoz - Sardenya,41.393627,2.1875758,http://www.ambmobilitat.cat/Principales/DatosParada.aspx?linea=0&version=0&cerca=1&punto=001302
238,1167,CAP Sant Andreu,41.433332,2.183621,http://www.ambmobilitat.cat/Principales/DatosParada.aspx?linea=0&version=0&cerca=1&punto=001167
239,510,Meridiana - La Sagrera,41.4213599,2.18711346,http://www.ambmobilitat.cat/Principales/DatosParada.aspx?linea=0&version=0&cerca=1&punto=000510
240,1340,Meridiana - Riera de Sant Andreu,41.43553602,2.18445759,http://www.ambmobilitat.cat/Principales/DatosParada.aspx?linea=0&version=0&cerca=1&punto=001340
241,1709,Meridiana - Ctra. de Ribes,41.449895,2.188848,http://www.ambmobilitat.cat/Principales/DatosParada.aspx?linea=0&version=0&cerca=1&punto=001709
242,1765,Meridiana - Pare Pérez del Pulgar,41.45348,2.189188,http://www.ambmobilitat.cat/Principales/DatosParada.aspx?linea=0&version=0&cerca=1&punto=001765
243,100861,Av. Miraflores - l'enginyer Moncunill,41.37106602,2.10956689,http://www.ambmobilitat.cat/Principales/DatosParada.aspx?linea=0&version=0&cerca=1&punto=100861
245,100863,Av. Miraflores - Llevant,41.37253563,2.10705247,http://www.ambmobilitat.cat/Principales/DatosParada.aspx?linea=0&version=0&cerca=1&punto=100863
247,100866,Av. Miramar - Av. Antoni Gaudí,41.31852351,2.00620447,http://www.ambmobilitat.cat/Principales/DatosParada.aspx?linea=0&version=0&cerca=1&punto=100866
253,100876,Av. Mn. J. Pons i Rabadà - Pl. Salvador Dalí,41.43722272,2.21308302,http://www.ambmobilitat.cat/Principales/DatosParada.aspx?linea=0&version=0&cerca=1&punto=100876
254,100877,Av. Mn. J. Pons i Rabadà - Av. de la Generalitat,41.43882957,2.21109175,http://www.ambmobilitat.cat/Principales/DatosParada.aspx?linea=0&version=0&cerca=1&punto=100877
260,666,Av. dels Banús - Camprodon,41.44636524,2.21408538,http://www.ambmobilitat.cat/Principales/DatosParada.aspx?linea=0&version=0&cerca=1&punto=000666
263,100292,Av. de Barcelona - Extremadura,41.36921641,2.07232617,http://www.ambmobilitat.cat/Principales/DatosParada.aspx?linea=0&version=0&cerca=1&punto=100292
265,100294,Av. de Barcelona - Av. del Baix Llobregat,41.37020745,2.07500624,http://www.ambmobilitat.cat/Principales/DatosParada.aspx?linea=0&version=0&cerca=1&punto=100294
266,1737,Av. Barcelona - Poliesportiu Municipal,41.367979,2.064016,http://www.ambmobilitat.cat/Principales/DatosParada.aspx?linea=0&version=0&cerca=1&punto=001737
269,109079,Montserrat Roig - M. Aurèlia Campmany,41.3627429,2.06197572,http://www.ambmobilitat.cat/Principales/DatosParada.aspx?linea=0&version=0&cerca=1&punto=109079
270,109080,Av. Can Corts - Mercè Rodoreda,41.35953324,2.06638951,http://www.ambmobilitat.cat/Principales/DatosParada.aspx?linea=0&version=0&cerca=1&punto=109080
271,109081,Av. Can Corts - Pl. Mary Santpere,41.35755958,2.06811101,http://www.ambmobilitat.cat/Principales/DatosParada.aspx?linea=0&version=0&cerca=1&punto=109081
274,536,Av. Barcelona - Mare de Déu de Montserrat,41.368082,2.067861,http://www.ambmobilitat.cat/Principales/DatosParada.aspx?linea=0&version=0&cerca=1&punto=000536
275,537,Av. Barcelona - Gran Capità,41.36821062,2.06772585,http://www.ambmobilitat.cat/Principales/DatosParada.aspx?linea=0&version=0&cerca=1&punto=000537
277,1657,Av. Barcelona - Mare de Déu de la Mercè,41.368508,2.070638,http://www.ambmobilitat.cat/Principales/DatosParada.aspx?linea=0&version=0&cerca=1&punto=001657
279,276,Av. Barcelona - Marquès de Monistrol,41.36889954,2.07141475,http://www.ambmobilitat.cat/Principales/DatosParada.aspx?linea=0&version=0&cerca=1&punto=000276
281,2271,Av. Barcelona - Bon Viatge,41.36474106,2.05874258,http://www.ambmobilitat.cat/Principales/DatosParada.aspx?linea=0&version=0&cerca=1&punto=002271
282,2248,Av. Barcelona - Rius i Taulet,41.366745,2.060741,http://www.ambmobilitat.cat/Principales/DatosParada.aspx?linea=0&version=0&cerca=1&punto=002248
283,904,Av. Barcelona - Tambor del Bruc,41.367872,2.064254,http://www.ambmobilitat.cat/Principales/DatosParada.aspx?linea=0&version=0&cerca=1&punto=000904
284,1922,Av. de Barcelona - Extremadura,41.369312,2.073349,http://www.ambmobilitat.cat/Principales/DatosParada.aspx?linea=0&version=0&cerca=1&punto=001922
286,100330,Av. del Mar - Pl. de la Terra,41.28978112,2.01543081,http://www.ambmobilitat.cat/Principales/DatosParada.aspx?linea=0&version=0&cerca=1&punto=100330
287,100331,Av. del Mar - Camí de la Pineda de Baix,41.27280425,2.0196926,http://www.ambmobilitat.cat/Principales/DatosParada.aspx?linea=0&version=0&cerca=1&punto=100331
288,100333,Av. del Mar - Camí de les Parets,41.2864407,2.01679373,http://www.ambmobilitat.cat/Principales/DatosParada.aspx?linea=0&version=0&cerca=1&punto=100333
289,100334,Av. del Mar - Camí La Maiola de Baix,41.27816586,2.01977066,http://www.ambmobilitat.cat/Principales/DatosParada.aspx?linea=0&version=0&cerca=1&punto=100334
290,100335,Av. del Mar - Camí de la Pineda,41.27288194,2.01983799,http://www.ambmobilitat.cat/Principales/DatosParada.aspx?linea=0&version=0&cerca=1&punto=100335
291,100339,Av. del Mar - Camí de la caseta d'en Nicasi,41.2755158,2.0198078,http://www.ambmobilitat.cat/Principales/DatosParada.aspx?linea=0&version=0&cerca=1&punto=100339
292,100340,Av. del Mar - Camí de la Murtra,41.28644088,2.01692917,http://www.ambmobilitat.cat/Principales/DatosParada.aspx?linea=0&version=0&cerca=1&punto=100340
293,100341,Av. del Mar - Camí la Sendera,41.27850551,2.0196123,http://www.ambmobilitat.cat/Principales/DatosParada.aspx?linea=0&version=0&cerca=1&punto=100341
295,1095,Borbó - Pg. Maragall,41.4264,2.175874,http://www.ambmobilitat.cat/Principales/DatosParada.aspx?linea=0&version=0&cerca=1&punto=001095
296,1958,Borbó - Costa i Cuxart,41.42813621,2.17473587,http://www.ambmobilitat.cat/Principales/DatosParada.aspx?linea=0&version=0&cerca=1&punto=001958
298,100355,Av. Can Palmer - Can Palmer ,41.31058722,2.00856852,http://www.ambmobilitat.cat/Principales/DatosParada.aspx?linea=0&version=0&cerca=1&punto=100355
299,100356,Av. Can Batllori - Assutzenes,41.31356035,2.0079533,http://www.ambmobilitat.cat/Principales/DatosParada.aspx?linea=0&version=0&cerca=1&punto=100356
300,100358,Av. Can Batllori - Assutzenes,41.31388036,2.00807491,http://www.ambmobilitat.cat/Principales/DatosParada.aspx?linea=0&version=0&cerca=1&punto=100358
301,100359,Av. Can Serra - Ctra. d'Esplugues,41.36452924,2.09956276,http://www.ambmobilitat.cat/Principales/DatosParada.aspx?linea=0&version=0&cerca=1&punto=100359
302,100360,Av. Can Serra - Institut Torras i Bages,41.36646767,2.10111464,http://www.ambmobilitat.cat/Principales/DatosParada.aspx?linea=0&version=0&cerca=1&punto=100360
303,100361,Av. Can Serra - núm. 20,41.36530227,2.0991912,http://www.ambmobilitat.cat/Principales/DatosParada.aspx?linea=0&version=0&cerca=1&punto=100361
305,100364,Av. Cardenal Vidal i B. - Ramiro de Maeztu,41.44035322,2.21435414,http://www.ambmobilitat.cat/Principales/DatosParada.aspx?linea=0&version=0&cerca=1&punto=100364
306,108741,Hospital Esperit Sant - Av. Cardenal Vidal i B.,41.43776821,2.21387639,http://www.ambmobilitat.cat/Principales/DatosParada.aspx?linea=0&version=0&cerca=1&punto=108741
307,100367,Av. Caritg - Circumval·lació,41.4488573,2.22439556,http://www.ambmobilitat.cat/Principales/DatosParada.aspx?linea=0&version=0&cerca=1&punto=100367
308,100368,Av. Caritg - Lepant,41.44874401,2.22425568,http://www.ambmobilitat.cat/Principales/DatosParada.aspx?linea=0&version=0&cerca=1&punto=100368
309,100370,Av. Caritg - Av. de Lloreda,41.45056332,2.22434371,http://www.ambmobilitat.cat/Principales/DatosParada.aspx?linea=0&version=0&cerca=1&punto=100370
310,100371,Av. Caritg - Ruperto Chapí,41.45066454,2.22423533,http://www.ambmobilitat.cat/Principales/DatosParada.aspx?linea=0&version=0&cerca=1&punto=100371
311,100372,Av. Carmen Amaya - dels Joncs,41.35670654,2.11729709,http://www.ambmobilitat.cat/Principales/DatosParada.aspx?linea=0&version=0&cerca=1&punto=100372
312,100373,Av. Carmen Amaya - Gornal,41.35300705,2.11736129,http://www.ambmobilitat.cat/Principales/DatosParada.aspx?linea=0&version=0&cerca=1&punto=100373
313,100374,Av. Carmen Amaya - Bloc núm. 60 ,41.35678321,2.11812475,http://www.ambmobilitat.cat/Principales/DatosParada.aspx?linea=0&version=0&cerca=1&punto=100374
314,101980,Av. del Carrilet - Av. Fabregada,41.35961167,2.10696625,http://www.ambmobilitat.cat/Principales/DatosParada.aspx?linea=0&version=0&cerca=1&punto=101980
327,595,Av. Catalunya - Pi i Gibert,41.42866377,2.22318422,http://www.ambmobilitat.cat/Principales/DatosParada.aspx?linea=0&version=0&cerca=1&punto=000595
329,1152,Av. Catalunya - la Pau,41.42850149,2.22289047,http://www.ambmobilitat.cat/Principales/DatosParada.aspx?linea=0&version=0&cerca=1&punto=001152
333,100398,Av. Catalunya - Singuerlín,41.45887135,2.20494443,http://www.ambmobilitat.cat/Principales/DatosParada.aspx?linea=0&version=0&cerca=1&punto=100398
335,100401,Av. Central d'Alba-rosa - Pg. del Tamariu,41.31513053,2.00467549,http://www.ambmobilitat.cat/Principales/DatosParada.aspx?linea=0&version=0&cerca=1&punto=100401
338,100406,Av. de la Cerdanya - Ctra. de Pomar,41.46942101,2.25236897,http://www.ambmobilitat.cat/Principales/DatosParada.aspx?linea=0&version=0&cerca=1&punto=100406
339,100407,Av. de la Cerdanya - Av. de Pomar,41.46955958,2.25222322,http://www.ambmobilitat.cat/Principales/DatosParada.aspx?linea=0&version=0&cerca=1&punto=100407
340,100408,Jocs Florals - Molí,41.3725241,2.09614011,http://www.ambmobilitat.cat/Principales/DatosParada.aspx?linea=0&version=0&cerca=1&punto=100408
341,100410,Av. Comte Ramon Berenguer - J. Bardina,41.36150247,2.0051587,http://www.ambmobilitat.cat/Principales/DatosParada.aspx?linea=0&version=0&cerca=1&punto=100410
342,100411,Av. Comte R. Berenguer - Jardí Font del Murrí ,41.36171164,2.00920464,http://www.ambmobilitat.cat/Principales/DatosParada.aspx?linea=0&version=0&cerca=1&punto=100411
347,100416,Av. de la Constitució -  Av. 305,41.27163259,1.96944679,http://www.ambmobilitat.cat/Principales/DatosParada.aspx?linea=0&version=0&cerca=1&punto=100416
349,100418,Av. de la Constitució - Pg. Brollador,41.26744807,1.95624356,http://www.ambmobilitat.cat/Principales/DatosParada.aspx?linea=0&version=0&cerca=1&punto=100418
351,100420,Av. de la Constitució - Av. de la Pineda,41.2775715,1.97672708,http://www.ambmobilitat.cat/Principales/DatosParada.aspx?linea=0&version=0&cerca=1&punto=100420
352,100421,Av. de la Constitució - Av. 300,41.27661888,1.97557767,http://www.ambmobilitat.cat/Principales/DatosParada.aspx?linea=0&version=0&cerca=1&punto=100421
354,100423,Av. de la Constitució - Av. del Pinar,41.26679487,1.94947366,http://www.ambmobilitat.cat/Principales/DatosParada.aspx?linea=0&version=0&cerca=1&punto=100423
356,100425,Av. de la Constitució - Av. 301,41.27586047,1.97492557,http://www.ambmobilitat.cat/Principales/DatosParada.aspx?linea=0&version=0&cerca=1&punto=100425
357,100428,Av. Constitució - Pl. Estació,41.2792159,1.97843871,http://www.ambmobilitat.cat/Principales/DatosParada.aspx?linea=0&version=0&cerca=1&punto=100428
358,100429,Av. de la Constitució - Raconada,41.26802848,1.96142611,http://www.ambmobilitat.cat/Principales/DatosParada.aspx?linea=0&version=0&cerca=1&punto=100429
361,822,Diagonal - Av. de Sarrià,41.391332,2.14031,http://www.ambmobilitat.cat/Principales/DatosParada.aspx?linea=0&version=0&cerca=1&punto=000822
362,494,Diagonal - Gandesa,41.388443,2.128934,http://www.ambmobilitat.cat/Principales/DatosParada.aspx?linea=0&version=0&cerca=1&punto=000494
363,21,Palau Reial,41.385593,2.116137,http://www.ambmobilitat.cat/Principales/DatosParada.aspx?linea=0&version=0&cerca=1&punto=000021
367,548,Zona Universitària - Escola A. E. Empresarials,41.384695,2.111024,http://www.ambmobilitat.cat/Principales/DatosParada.aspx?linea=0&version=0&cerca=1&punto=000548
368,373,Diagonal - Entença,41.39034,2.136405,http://www.ambmobilitat.cat/Principales/DatosParada.aspx?linea=0&version=0&cerca=1&punto=000373
372,524,Diagonal - Ganduxer,41.39165,2.140023,http://www.ambmobilitat.cat/Principales/DatosParada.aspx?linea=0&version=0&cerca=1&punto=000524
377,108891,Av. Diagonal - González Tablas,41.38443241,2.1102776,http://www.ambmobilitat.cat/Principales/DatosParada.aspx?linea=0&version=0&cerca=1&punto=108891
382,42,Diagonal - L'Illa Diagonal,41.389623,2.13359,http://www.ambmobilitat.cat/Principales/DatosParada.aspx?linea=0&version=0&cerca=1&punto=000042
383,483,Diagonal - Numància,41.389513,2.131617,http://www.ambmobilitat.cat/Principales/DatosParada.aspx?linea=0&version=0&cerca=1&punto=000483
384,309,Diagonal - Complex Esportiu Universitari,41.383268,2.107874,http://www.ambmobilitat.cat/Principales/DatosParada.aspx?linea=0&version=0&cerca=1&punto=000309
389,766,Diagonal - Pl. Pius XII,41.387238,2.122615,http://www.ambmobilitat.cat/Principales/DatosParada.aspx?linea=0&version=0&cerca=1&punto=000766
390,493,Diagonal - Gran Via Carles III,41.387589,2.125577,http://www.ambmobilitat.cat/Principales/DatosParada.aspx?linea=0&version=0&cerca=1&punto=000493
391,458,Pl. Pius XII,41.386964,2.121553,http://www.ambmobilitat.cat/Principales/DatosParada.aspx?linea=0&version=0&cerca=1&punto=000458
394,310,Diagonal - Av. Doctor Marañón,41.384222,2.111612,http://www.ambmobilitat.cat/Principales/DatosParada.aspx?linea=0&version=0&cerca=1&punto=000310
397,100501,Molí - Av. Can Serra,41.36834547,2.10149925,http://www.ambmobilitat.cat/Principales/DatosParada.aspx?linea=0&version=0&cerca=1&punto=100501
398,100502,Av. de l'Eramprunyà - García Lorca,41.30968344,1.99577276,http://www.ambmobilitat.cat/Principales/DatosParada.aspx?linea=0&version=0&cerca=1&punto=100502
402,3368,Av. l'Estatut de Catalunya - Campoamor,41.43512,2.153537,http://www.ambmobilitat.cat/Principales/DatosParada.aspx?linea=0&version=0&cerca=1&punto=003368
409,100516,Av. dels Eucaliptus - Av. Bellamar,41.26845621,1.9524355,http://www.ambmobilitat.cat/Principales/DatosParada.aspx?linea=0&version=0&cerca=1&punto=100516
410,100518,Av. Europa - Blanes,41.27006818,2.02443538,http://www.ambmobilitat.cat/Principales/DatosParada.aspx?linea=0&version=0&cerca=1&punto=100518
411,100519,Av. Europa - Av. Amèrica,41.35564878,2.11404049,http://www.ambmobilitat.cat/Principales/DatosParada.aspx?linea=0&version=0&cerca=1&punto=100519
412,100520,Av. Europa - Arenys,41.27073031,2.03257218,http://www.ambmobilitat.cat/Principales/DatosParada.aspx?linea=0&version=0&cerca=1&punto=100520
413,100521,Av.  Europa - Palamós,41.26979131,2.02199085,http://www.ambmobilitat.cat/Principales/DatosParada.aspx?linea=0&version=0&cerca=1&punto=100521
414,110491,Av. Europa - Platja de la Pineda,41.26954958,2.01902557,http://www.ambmobilitat.cat/Principales/DatosParada.aspx?linea=0&version=0&cerca=1&punto=110491
415,100523,Av. Europa - Av. del Mar,41.26969225,2.02211105,http://www.ambmobilitat.cat/Principales/DatosParada.aspx?linea=0&version=0&cerca=1&punto=100523
416,100524,Av. Europa - Palafrugell,41.26908667,2.01463298,http://www.ambmobilitat.cat/Principales/DatosParada.aspx?linea=0&version=0&cerca=1&punto=100524
417,100525,Av. Europa - Sitges,41.26858268,2.00390012,http://www.ambmobilitat.cat/Principales/DatosParada.aspx?linea=0&version=0&cerca=1&punto=100525
418,100526,Av. Europa - Trav. Industrial,41.35567042,2.11373669,http://www.ambmobilitat.cat/Principales/DatosParada.aspx?linea=0&version=0&cerca=1&punto=100526
419,100527,Av. Europa - Estació RENFE Bellvitge ,41.35373377,2.11461421,http://www.ambmobilitat.cat/Principales/DatosParada.aspx?linea=0&version=0&cerca=1&punto=100527
422,100532,Av. Fabregada - Cobalt,41.35715295,2.10922927,http://www.ambmobilitat.cat/Principales/DatosParada.aspx?linea=0&version=0&cerca=1&punto=100532
423,100533,Av. Fabregada - Ptge. Estadella,41.35786074,2.1089561,http://www.ambmobilitat.cat/Principales/DatosParada.aspx?linea=0&version=0&cerca=1&punto=100533
430,100547,Av. Francesc Macià - Mare de Dèu dels Àngels,41.4529093,2.20455576,http://www.ambmobilitat.cat/Principales/DatosParada.aspx?linea=0&version=0&cerca=1&punto=100547
431,100548,Av. Francesc Macià - Safareig,41.45344358,2.2048649,http://www.ambmobilitat.cat/Principales/DatosParada.aspx?linea=0&version=0&cerca=1&punto=100548
432,100549,Francesc Macià - Maria Cristina,41.44760546,2.24258883,http://www.ambmobilitat.cat/Principales/DatosParada.aspx?linea=0&version=0&cerca=1&punto=100549
434,100552,Av. General Prim - Salvador Seguí,41.33738591,2.03304255,http://www.ambmobilitat.cat/Principales/DatosParada.aspx?linea=0&version=0&cerca=1&punto=100552
437,100556,Av. Generalitat - Av. Josep Tarradellas,41.31206058,2.01691313,http://www.ambmobilitat.cat/Principales/DatosParada.aspx?linea=0&version=0&cerca=1&punto=100556
438,100558,Av. Generalitat - Dr. Creixell,41.31461125,2.01953221,http://www.ambmobilitat.cat/Principales/DatosParada.aspx?linea=0&version=0&cerca=1&punto=100558
439,100560,Av. de la Generalitat - Av. Torre Roja,41.43547288,2.21281179,http://www.ambmobilitat.cat/Principales/DatosParada.aspx?linea=0&version=0&cerca=1&punto=100560
440,100562,Av. Generalitat - Dr. Fleming,41.30869367,2.01354053,http://www.ambmobilitat.cat/Principales/DatosParada.aspx?linea=0&version=0&cerca=1&punto=100562
441,100565,Av. Generalitat - Agricultura,41.31105483,2.01612879,http://www.ambmobilitat.cat/Principales/DatosParada.aspx?linea=0&version=0&cerca=1&punto=100565
442,100566,Av. de la Generalitat - Av. Can Peixauet,41.4437226,2.21077748,http://www.ambmobilitat.cat/Principales/DatosParada.aspx?linea=0&version=0&cerca=1&punto=100566
443,100567,Av. Generalitat - Polígon Industrial Roca,41.3086709,2.0137578,http://www.ambmobilitat.cat/Principales/DatosParada.aspx?linea=0&version=0&cerca=1&punto=100567
446,1303,Av. Generalitat - Sant Benet,41.44873631,2.21046508,http://www.ambmobilitat.cat/Principales/DatosParada.aspx?linea=0&version=0&cerca=1&punto=001303
447,100574,Av. Generalitat - Pl. d'Europa,41.31617292,2.02143837,http://www.ambmobilitat.cat/Principales/DatosParada.aspx?linea=0&version=0&cerca=1&punto=100574
449,100576,Av. de la Generalitat - Sant Jordi,41.44188628,2.21062264,http://www.ambmobilitat.cat/Principales/DatosParada.aspx?linea=0&version=0&cerca=1&punto=100576
450,466,Gran Via - Pl. dels Porxos,41.41394749,2.20068208,http://www.ambmobilitat.cat/Principales/DatosParada.aspx?linea=0&version=0&cerca=1&punto=000466
451,717,Gran Via - Selva de Mar,41.41371,2.2009182,http://www.ambmobilitat.cat/Principales/DatosParada.aspx?linea=0&version=0&cerca=1&punto=000717
452,464,Gran Via - Bac de Roda,41.41107132,2.19743729,http://www.ambmobilitat.cat/Principales/DatosParada.aspx?linea=0&version=0&cerca=1&punto=000464
453,503,Metro Tetuan,41.393762,2.173666,http://www.ambmobilitat.cat/Principales/DatosParada.aspx?linea=0&version=0&cerca=1&punto=000503
455,1246,Gran Via - Llúria,41.391937,2.171236,http://www.ambmobilitat.cat/Principales/DatosParada.aspx?linea=0&version=0&cerca=1&punto=001246
456,1556,Gran Via - Viladomat,41.380036,2.155913,http://www.ambmobilitat.cat/Principales/DatosParada.aspx?linea=0&version=0&cerca=1&punto=001556
457,540,Gran Via - Agricultura,41.415968,2.20337,http://www.ambmobilitat.cat/Principales/DatosParada.aspx?linea=0&version=0&cerca=1&punto=000540
458,927,Gran Via - Muntaner,41.384442,2.1617136,http://www.ambmobilitat.cat/Principales/DatosParada.aspx?linea=0&version=0&cerca=1&punto=000927
460,1254,Gran Via - Entença,41.37841072,2.15375577,http://www.ambmobilitat.cat/Principales/DatosParada.aspx?linea=0&version=0&cerca=1&punto=001254
461,1173,Gran Via - Química,41.36590348,2.13734945,http://www.ambmobilitat.cat/Principales/DatosParada.aspx?linea=0&version=0&cerca=1&punto=001173
462,125,Metro Tetuan,41.39379,2.174219,http://www.ambmobilitat.cat/Principales/DatosParada.aspx?linea=0&version=0&cerca=1&punto=000125
464,3023,Ildefons Cerdà - Ciutat de la Justícia,41.363809,2.133837,http://www.ambmobilitat.cat/Principales/DatosParada.aspx?linea=0&version=0&cerca=1&punto=003023
465,389,Pl. Espanya - FGC,41.374291,2.148575,http://www.ambmobilitat.cat/Principales/DatosParada.aspx?linea=0&version=0&cerca=1&punto=000389
466,895,La Campana,41.368296,2.140017,http://www.ambmobilitat.cat/Principales/DatosParada.aspx?linea=0&version=0&cerca=1&punto=000895
467,167,Gran Via - Casanova,41.38451458,2.16136858,http://www.ambmobilitat.cat/Principales/DatosParada.aspx?linea=0&version=0&cerca=1&punto=000167
470,1070,Gran Via - Pau Claris,41.390143,2.169377,http://www.ambmobilitat.cat/Principales/DatosParada.aspx?linea=0&version=0&cerca=1&punto=001070
471,108,Pl. Espanya - FGC,41.374395,2.147976,http://www.ambmobilitat.cat/Principales/DatosParada.aspx?linea=0&version=0&cerca=1&punto=000108
472,868,La Campana,41.367507,2.139298,http://www.ambmobilitat.cat/Principales/DatosParada.aspx?linea=0&version=0&cerca=1&punto=000868
475,149,Gran Via - Llúria,41.39187,2.171675,http://www.ambmobilitat.cat/Principales/DatosParada.aspx?linea=0&version=0&cerca=1&punto=000149
476,914,Gran Via - Marina,41.3985875,2.18063853,http://www.ambmobilitat.cat/Principales/DatosParada.aspx?linea=0&version=0&cerca=1&punto=000914
477,383,Gran Via - Espronceda,41.41167709,2.19771517,http://www.ambmobilitat.cat/Principales/DatosParada.aspx?linea=0&version=0&cerca=1&punto=000383
478,1310,Gran Via - Santa Dorotea,41.371705,2.14488,http://www.ambmobilitat.cat/Principales/DatosParada.aspx?linea=0&version=0&cerca=1&punto=001310
479,907,Gran Via - Moianès,41.37024053,2.14257235,http://www.ambmobilitat.cat/Principales/DatosParada.aspx?linea=0&version=0&cerca=1&punto=000907
480,421,Gran Via - Farell,41.371993,2.14495,http://www.ambmobilitat.cat/Principales/DatosParada.aspx?linea=0&version=0&cerca=1&punto=000421
482,941,Gran Via - Mandoni,41.36955,2.141984,http://www.ambmobilitat.cat/Principales/DatosParada.aspx?linea=0&version=0&cerca=1&punto=000941
483,206,Gran Via - Calàbria,41.38013334,2.1554887,http://www.ambmobilitat.cat/Principales/DatosParada.aspx?linea=0&version=0&cerca=1&punto=000206
484,774,Gran Via - Vilamarí,41.377457,2.1519492,http://www.ambmobilitat.cat/Principales/DatosParada.aspx?linea=0&version=0&cerca=1&punto=000774
485,1468,Gran Via - Villarroel,41.38286796,2.15915645,http://www.ambmobilitat.cat/Principales/DatosParada.aspx?linea=0&version=0&cerca=1&punto=001468
487,888,Gran Via - Maresme,41.41761276,2.20617056,http://www.ambmobilitat.cat/Principales/DatosParada.aspx?linea=0&version=0&cerca=1&punto=000888
489,91,Av. Granvia - Miguel Hernández,41.352763,2.120214,http://www.ambmobilitat.cat/Principales/DatosParada.aspx?linea=0&version=0&cerca=1&punto=000091
491,109102,Av. Granvia - Gornal ,41.35278536,2.11912925,http://www.ambmobilitat.cat/Principales/DatosParada.aspx?linea=0&version=0&cerca=1&punto=109102
492,1611,Av. Granvia - Rbla. Marina,41.348273,2.112261,http://www.ambmobilitat.cat/Principales/DatosParada.aspx?linea=0&version=0&cerca=1&punto=001611
493,1789,Av. Granvia - Hospital Universitari de Bellvitge,41.34334382,2.10514228,http://www.ambmobilitat.cat/Principales/DatosParada.aspx?linea=0&version=0&cerca=1&punto=001789
495,472,Pl. Europa,41.35740725,2.12639567,http://www.ambmobilitat.cat/Principales/DatosParada.aspx?linea=0&version=0&cerca=1&punto=000472
496,92,Pl. Europa,41.358395,2.1266127,http://www.ambmobilitat.cat/Principales/DatosParada.aspx?linea=0&version=0&cerca=1&punto=000092
498,185,Av. Granvia - Bloc I. Cerdà,41.361782,2.13196,http://www.ambmobilitat.cat/Principales/DatosParada.aspx?linea=0&version=0&cerca=1&punto=000185
499,1612,Av. Granvia - Av. Mare de Déu de Bellvitge,41.346167,2.11024,http://www.ambmobilitat.cat/Principales/DatosParada.aspx?linea=0&version=0&cerca=1&punto=001612
500,1434,Av. Granvia - Can Tries,41.354971,2.122077,http://www.ambmobilitat.cat/Principales/DatosParada.aspx?linea=0&version=0&cerca=1&punto=001434
502,350,Av. de Vallcarca - Baixada de la Glòria,41.410385,2.14701,http://www.ambmobilitat.cat/Principales/DatosParada.aspx?linea=0&version=0&cerca=1&punto=000350
506,119,Av. de Vallcarca - Pl. Lesseps,41.408598,2.148951,http://www.ambmobilitat.cat/Principales/DatosParada.aspx?linea=0&version=0&cerca=1&punto=000119
514,100670,Av. Isaac Albéniz - Sant Jaume,41.4830245,2.26824885,http://www.ambmobilitat.cat/Principales/DatosParada.aspx?linea=0&version=0&cerca=1&punto=100670
516,682,Cementiri de l'Est,41.394427,2.201577,http://www.ambmobilitat.cat/Principales/DatosParada.aspx?linea=0&version=0&cerca=1&punto=000682
522,408,Av. Indústria - Salvador Espriu,41.381568,2.068519,http://www.ambmobilitat.cat/Principales/DatosParada.aspx?linea=0&version=0&cerca=1&punto=000408
523,1720,Av. Indústria - Av. Camp Roig,41.38057054,2.06694724,http://www.ambmobilitat.cat/Principales/DatosParada.aspx?linea=0&version=0&cerca=1&punto=001720
524,1721,Av. Indústria - Ramón i Cajal,41.381787,2.068691,http://www.ambmobilitat.cat/Principales/DatosParada.aspx?linea=0&version=0&cerca=1&punto=001721
527,100687,Av. Isidre Martí - Àngel Guimerà,41.37599902,2.08309496,http://www.ambmobilitat.cat/Principales/DatosParada.aspx?linea=0&version=0&cerca=1&punto=100687
528,100688,Av. Isidre Martí - Josep Rodoreda,41.37360279,2.08429376,http://www.ambmobilitat.cat/Principales/DatosParada.aspx?linea=0&version=0&cerca=1&punto=100688
529,100689,CAP Lluís Millet - Av. Isidre Martí,41.37507327,2.08359434,http://www.ambmobilitat.cat/Principales/DatosParada.aspx?linea=0&version=0&cerca=1&punto=100689
530,108557,Av. de Cornellà - Francesc Layret,41.37110173,2.0825058,http://www.ambmobilitat.cat/Principales/DatosParada.aspx?linea=0&version=0&cerca=1&punto=108557
532,100693,Av. Itàlia - Navas de Tolosa,41.45470832,2.22190556,http://www.ambmobilitat.cat/Principales/DatosParada.aspx?linea=0&version=0&cerca=1&punto=100693
533,100696,Àtom - La Màquina,41.29448215,2.00722699,http://www.ambmobilitat.cat/Principales/DatosParada.aspx?linea=0&version=0&cerca=1&punto=100696
534,293,Av. Joan XXIII - Pl. Pius XII,41.385641,2.122614,http://www.ambmobilitat.cat/Principales/DatosParada.aspx?linea=0&version=0&cerca=1&punto=000293
536,109242,Judea - Hospital Vall d'Hebron,41.42494535,2.14118983,http://www.ambmobilitat.cat/Principales/DatosParada.aspx?linea=0&version=0&cerca=1&punto=109242
537,100703,Av. Jordana - Pont Autopista C-32 ,41.46902164,2.27870437,http://www.ambmobilitat.cat/Principales/DatosParada.aspx?linea=0&version=0&cerca=1&punto=100703
538,100704,Av. Les Vilares - Av. Can Serra,41.47043303,2.2772176,http://www.ambmobilitat.cat/Principales/DatosParada.aspx?linea=0&version=0&cerca=1&punto=100704
539,100705,Av. Jordana - Parc del Tramvia ,41.47133541,2.27734966,http://www.ambmobilitat.cat/Principales/DatosParada.aspx?linea=0&version=0&cerca=1&punto=100705
540,100706,Av. Jordana - Mn. Cinto Verdaguer,41.47163419,2.27517812,http://www.ambmobilitat.cat/Principales/DatosParada.aspx?linea=0&version=0&cerca=1&punto=100706
544,100712,Av. J. Anselm Clavé - Enric Borràs,41.33257179,2.09679255,http://www.ambmobilitat.cat/Principales/DatosParada.aspx?linea=0&version=0&cerca=1&punto=100712
546,100716,Av. Josep Tarradellas - Rbla. Just Oliveras,41.36397499,2.1004066,http://www.ambmobilitat.cat/Principales/DatosParada.aspx?linea=0&version=0&cerca=1&punto=100716
547,1099,Josep Tarradellas - Comte Borrell,41.39157528,2.14429755,http://www.ambmobilitat.cat/Principales/DatosParada.aspx?linea=0&version=0&cerca=1&punto=001099
550,1722,Av. Lluís Companys - Av. Generalitat,41.37544228,2.05692076,http://www.ambmobilitat.cat/Principales/DatosParada.aspx?linea=0&version=0&cerca=1&punto=001722
551,1723,Av. Lluís Companys - Rubió i Tudurí,41.377446,2.060231,http://www.ambmobilitat.cat/Principales/DatosParada.aspx?linea=0&version=0&cerca=1&punto=001723
552,1724,Av. Lluís Companys - Pla del Vent,41.37853,2.062027,http://www.ambmobilitat.cat/Principales/DatosParada.aspx?linea=0&version=0&cerca=1&punto=001724
553,495,Verge de Montserrat - Cartagena,41.416051,2.169892,http://www.ambmobilitat.cat/Principales/DatosParada.aspx?linea=0&version=0&cerca=1&punto=000495
554,245,Pl. de la Font Castellana,41.41514876,2.16686547,http://www.ambmobilitat.cat/Principales/DatosParada.aspx?linea=0&version=0&cerca=1&punto=000245
555,1316,Verge de Montserrat - Praga,41.41418,2.162303,http://www.ambmobilitat.cat/Principales/DatosParada.aspx?linea=0&version=0&cerca=1&punto=001316
556,626,Verge de Montserrat - La Bisbal,41.417988,2.171696,http://www.ambmobilitat.cat/Principales/DatosParada.aspx?linea=0&version=0&cerca=1&punto=000626
557,1550,Av. M. Fdez. Márquez - Sant R. de Penyafort,41.41545652,2.22011671,http://www.ambmobilitat.cat/Principales/DatosParada.aspx?linea=0&version=0&cerca=1&punto=001550
558,1551,Av. M. Fdez. Márquez - Salzillo,41.41884453,2.22310061,http://www.ambmobilitat.cat/Principales/DatosParada.aspx?linea=0&version=0&cerca=1&punto=001551
559,1752,Av. Madrid - Carles III,41.378713,2.127706,http://www.ambmobilitat.cat/Principales/DatosParada.aspx?linea=0&version=0&cerca=1&punto=001752
562,1578,Pl. del Centre,41.381924,2.1360927,http://www.ambmobilitat.cat/Principales/DatosParada.aspx?linea=0&version=0&cerca=1&punto=001578
563,1753,Av. Madrid - Benavent,41.37745694,2.12542965,http://www.ambmobilitat.cat/Principales/DatosParada.aspx?linea=0&version=0&cerca=1&punto=001753
564,263,Av. de Madrid - Arizala,41.377042,2.125151,http://www.ambmobilitat.cat/Principales/DatosParada.aspx?linea=0&version=0&cerca=1&punto=000263
565,1576,Av. Madrid - Joan Güell,41.38083414,2.13275903,http://www.ambmobilitat.cat/Principales/DatosParada.aspx?linea=0&version=0&cerca=1&punto=001576
566,2690,Av. Madrid - Joan Güell,41.38071082,2.13158099,http://www.ambmobilitat.cat/Principales/DatosParada.aspx?linea=0&version=0&cerca=1&punto=002690
567,479,Av. Madrid - Carles III,41.378931,2.128468,http://www.ambmobilitat.cat/Principales/DatosParada.aspx?linea=0&version=0&cerca=1&punto=000479
570,100754,Av. Mare de Déu de Bellvitge - Trav. Industrial,41.35058623,2.10460802,http://www.ambmobilitat.cat/Principales/DatosParada.aspx?linea=0&version=0&cerca=1&punto=100754
571,100756,Av. Mare de Déu de Bellvitge - Ermita de Bellvitge,41.34754339,2.10832669,http://www.ambmobilitat.cat/Principales/DatosParada.aspx?linea=0&version=0&cerca=1&punto=100756
572,100757,Av. Mare de Déu de Bellvitge - Bellvitge,41.3479362,2.10681884,http://www.ambmobilitat.cat/Principales/DatosParada.aspx?linea=0&version=0&cerca=1&punto=100757
573,459,Verge de Montserrat - Gènova,41.41654,2.1701672,http://www.ambmobilitat.cat/Principales/DatosParada.aspx?linea=0&version=0&cerca=1&punto=000459
574,437,Pl. del Nen de la Rutlla,41.418617,2.1719716,http://www.ambmobilitat.cat/Principales/DatosParada.aspx?linea=0&version=0&cerca=1&punto=000437
575,460,Verge de Montserrat - Francesc Alegre,41.415726,2.16773,http://www.ambmobilitat.cat/Principales/DatosParada.aspx?linea=0&version=0&cerca=1&punto=000460
576,820,Metro Maragall,41.424557,2.1761565,http://www.ambmobilitat.cat/Principales/DatosParada.aspx?linea=0&version=0&cerca=1&punto=000820
577,823,Verge de Montserrat - Periodistes,41.421722,2.174158,http://www.ambmobilitat.cat/Principales/DatosParada.aspx?linea=0&version=0&cerca=1&punto=000823
578,1412,Verge de Montserrat - Periodistes,41.42173,2.1743135,http://www.ambmobilitat.cat/Principales/DatosParada.aspx?linea=0&version=0&cerca=1&punto=001412
580,100768,Av. del Maresme - Covadonga,41.43533621,2.22131208,http://www.ambmobilitat.cat/Principales/DatosParada.aspx?linea=0&version=0&cerca=1&punto=100768
581,100884,Av. Mònaco - Còrsega,41.45286901,2.22188539,http://www.ambmobilitat.cat/Principales/DatosParada.aspx?linea=0&version=0&cerca=1&punto=100884
586,100916,Av. Morera - Av. President Companys,41.46070505,2.24849602,http://www.ambmobilitat.cat/Principales/DatosParada.aspx?linea=0&version=0&cerca=1&punto=100916
587,100918,Av. Marquès de Sant Mori - Av. Dr. Bassols,41.44070764,2.22252473,http://www.ambmobilitat.cat/Principales/DatosParada.aspx?linea=0&version=0&cerca=1&punto=100918
588,3494,Av. Onze de Setembre - Ctra. de l'Aviació,41.319622,2.0943453,http://www.ambmobilitat.cat/Principales/DatosParada.aspx?linea=0&version=0&cerca=1&punto=003494
589,3496,Av. Onze de Setembre - Jardins de Mon Racó,41.320587,2.0990994,http://www.ambmobilitat.cat/Principales/DatosParada.aspx?linea=0&version=0&cerca=1&punto=003496
590,3497,Av. Onze de Setembre - Canet de Mar,41.320847,2.0994184,http://www.ambmobilitat.cat/Principales/DatosParada.aspx?linea=0&version=0&cerca=1&punto=003497
593,1458,Av. dels Països Catalans - Gaietà Faura,41.379549,2.094527,http://www.ambmobilitat.cat/Principales/DatosParada.aspx?linea=0&version=0&cerca=1&punto=001458
594,1746,Av. dels Països Catalans - Somatents,41.377829,2.091891,http://www.ambmobilitat.cat/Principales/DatosParada.aspx?linea=0&version=0&cerca=1&punto=001746
596,1747,Av. dels Països Catalans-Direcció Gral. d'Esports,41.379655,2.094964,http://www.ambmobilitat.cat/Principales/DatosParada.aspx?linea=0&version=0&cerca=1&punto=001747
597,1459,Av. dels Països Catalans - Laureà Miró,41.37783472,2.09157862,http://www.ambmobilitat.cat/Principales/DatosParada.aspx?linea=0&version=0&cerca=1&punto=001459
598,152,Rambla dels Països Catalans - Ptge. Formentera,41.491076,2.185283,http://www.ambmobilitat.cat/Principales/DatosParada.aspx?linea=0&version=0&cerca=1&punto=000152
599,640,Rambla dels Països Catalans - Torras i Bages,41.48933783,2.18684475,http://www.ambmobilitat.cat/Principales/DatosParada.aspx?linea=0&version=0&cerca=1&punto=000640
600,100942,Av. de la Pallaresa - Dr. Ferran,41.45559953,2.20666644,http://www.ambmobilitat.cat/Principales/DatosParada.aspx?linea=0&version=0&cerca=1&punto=100942
602,100945,Av. de la Pallaresa - Balears,41.45770049,2.2078803,http://www.ambmobilitat.cat/Principales/DatosParada.aspx?linea=0&version=0&cerca=1&punto=100945
607,770,Paral·lel - Margarit,41.374905,2.1645384,http://www.ambmobilitat.cat/Principales/DatosParada.aspx?linea=0&version=0&cerca=1&punto=000770
608,1620,Metro Poble Sec,41.374924,2.1599343,http://www.ambmobilitat.cat/Principales/DatosParada.aspx?linea=0&version=0&cerca=1&punto=001620
609,1326,Paral·lel - Drassanes,41.37471481,2.17524286,http://www.ambmobilitat.cat/Principales/DatosParada.aspx?linea=0&version=0&cerca=1&punto=001326
610,1367,Paral·lel - Tamarit,41.37493,2.1554976,http://www.ambmobilitat.cat/Principales/DatosParada.aspx?linea=0&version=0&cerca=1&punto=001367
611,722,Paral·lel - Cabanes,41.37483506,2.17051886,http://www.ambmobilitat.cat/Principales/DatosParada.aspx?linea=0&version=0&cerca=1&punto=000722
614,723,Paral·lel - Drassanes,41.37457361,2.17466244,http://www.ambmobilitat.cat/Principales/DatosParada.aspx?linea=0&version=0&cerca=1&punto=000723
615,140,Paral·lel - Ronda Sant Pau,41.375062,2.167171,http://www.ambmobilitat.cat/Principales/DatosParada.aspx?linea=0&version=0&cerca=1&punto=000140
616,377,Paral·lel - Rocafort,41.375108,2.1594,http://www.ambmobilitat.cat/Principales/DatosParada.aspx?linea=0&version=0&cerca=1&punto=000377
617,1061,Paral·lel - Vila i Vilà,41.374858,2.167291,http://www.ambmobilitat.cat/Principales/DatosParada.aspx?linea=0&version=0&cerca=1&punto=001061
618,1004,Metro Paral·lel,41.375031,2.170619,http://www.ambmobilitat.cat/Principales/DatosParada.aspx?linea=0&version=0&cerca=1&punto=001004
621,209,Paral·lel - Marquès de Campo Sagrado,41.375096,2.16372,http://www.ambmobilitat.cat/Principales/DatosParada.aspx?linea=0&version=0&cerca=1&punto=000209
623,1156,Av. del Parc - Bellaterra,41.35892046,2.07370806,http://www.ambmobilitat.cat/Principales/DatosParada.aspx?linea=0&version=0&cerca=1&punto=001156
624,1157,Av. del Parc - Bonavista,41.35958605,2.07622032,http://www.ambmobilitat.cat/Principales/DatosParada.aspx?linea=0&version=0&cerca=1&punto=001157
625,355,Av. del Parc - Mossèn Joaquim Palet,41.35921087,2.07304816,http://www.ambmobilitat.cat/Principales/DatosParada.aspx?linea=0&version=0&cerca=1&punto=000355
626,354,Av. del Parc - Ptge. de Les Delícies,41.35946276,2.07503169,http://www.ambmobilitat.cat/Principales/DatosParada.aspx?linea=0&version=0&cerca=1&punto=000354
628,100978,Av. Pau Casals - Arts i els Oficis,41.35983116,2.10418711,http://www.ambmobilitat.cat/Principales/DatosParada.aspx?linea=0&version=0&cerca=1&punto=100978
629,100979,Av. Pau Casals - Cobalt,41.3558628,2.10700448,http://www.ambmobilitat.cat/Principales/DatosParada.aspx?linea=0&version=0&cerca=1&punto=100979
635,329,Av Pi i Margall - Av. Catalunya,41.432803,2.215877,http://www.ambmobilitat.cat/Principales/DatosParada.aspx?linea=0&version=0&cerca=1&punto=000329
636,100988,Av. Pi i Margall - Rafael Casanova,41.43171647,2.21468286,http://www.ambmobilitat.cat/Principales/DatosParada.aspx?linea=0&version=0&cerca=1&punto=100988
639,100997,Av. Pius XII - Rbla. Solidaritat,41.43708315,2.21673691,http://www.ambmobilitat.cat/Principales/DatosParada.aspx?linea=0&version=0&cerca=1&punto=100997
642,194,Av. de la Platja - Fermí Borràs,41.42746306,2.22508018,http://www.ambmobilitat.cat/Principales/DatosParada.aspx?linea=0&version=0&cerca=1&punto=000194
643,1100,Av. de la Platja - Torrassa,41.42755801,2.22549115,http://www.ambmobilitat.cat/Principales/DatosParada.aspx?linea=0&version=0&cerca=1&punto=001100
644,101005,Av. del Poal - Juan Ramón Jiménez,41.2704305,1.9438838,http://www.ambmobilitat.cat/Principales/DatosParada.aspx?linea=0&version=0&cerca=1&punto=101005
645,101006,Av. del Poal - Carles Riba,41.26715693,1.94507675,http://www.ambmobilitat.cat/Principales/DatosParada.aspx?linea=0&version=0&cerca=1&punto=101006
647,101008,Av. del Poal - Pg. dels Tarongers,41.2673859,1.94515692,http://www.ambmobilitat.cat/Principales/DatosParada.aspx?linea=0&version=0&cerca=1&punto=101008
648,101009,Av. Pomar - Rubí,41.46420499,2.25213002,http://www.ambmobilitat.cat/Principales/DatosParada.aspx?linea=0&version=0&cerca=1&punto=101009
649,101010,Av. de Pomar - Av. de Sabadell,41.46539694,2.25244234,http://www.ambmobilitat.cat/Principales/DatosParada.aspx?linea=0&version=0&cerca=1&punto=101010
650,101011,Av. de Pomar - Vilassar de Mar,41.46555672,2.25344188,http://www.ambmobilitat.cat/Principales/DatosParada.aspx?linea=0&version=0&cerca=1&punto=101011
652,101015,Av. de Pomar - Premià de Mar,41.46404021,2.25182698,http://www.ambmobilitat.cat/Principales/DatosParada.aspx?linea=0&version=0&cerca=1&punto=101015
654,101019,Av. President Companys - Germà Juli,41.45397039,2.24833462,http://www.ambmobilitat.cat/Principales/DatosParada.aspx?linea=0&version=0&cerca=1&punto=101019
655,101020,Av. President Companys - Almogàvers,41.45874403,2.24864006,http://www.ambmobilitat.cat/Principales/DatosParada.aspx?linea=0&version=0&cerca=1&punto=101020
660,101026,Av. President Companys - Pl. Medicina,41.45467178,2.24785024,http://www.ambmobilitat.cat/Principales/DatosParada.aspx?linea=0&version=0&cerca=1&punto=101026
661,101029,Av. President Companys - Av. Morera,41.45989278,2.24877017,http://www.ambmobilitat.cat/Principales/DatosParada.aspx?linea=0&version=0&cerca=1&punto=101029
666,109045,Primavera - Aigües del Llobregat,41.3721373,2.10610261,http://www.ambmobilitat.cat/Principales/DatosParada.aspx?linea=0&version=0&cerca=1&punto=109045
668,101042,Av. Primer de Maig - Mercat de Pomar,41.46417919,2.25036065,http://www.ambmobilitat.cat/Principales/DatosParada.aspx?linea=0&version=0&cerca=1&punto=101042
669,101043,Mercat de Pomar - Av. Primer de Maig,41.46426841,2.25046953,http://www.ambmobilitat.cat/Principales/DatosParada.aspx?linea=0&version=0&cerca=1&punto=101043
672,1533,Av. Príncep d'Astúries - Guillem Tell,41.402807,2.15003,http://www.ambmobilitat.cat/Principales/DatosParada.aspx?linea=0&version=0&cerca=1&punto=001533
673,1522,Av. Príncep d'Astúries - Via Augusta,41.401226,2.151112,http://www.ambmobilitat.cat/Principales/DatosParada.aspx?linea=0&version=0&cerca=1&punto=001522
677,101055,Av. Puigfred - Sant Fermí,41.45389241,2.23462997,http://www.ambmobilitat.cat/Principales/DatosParada.aspx?linea=0&version=0&cerca=1&punto=101055
678,101056,Av. Puigfred - Felip II,41.45387946,2.23529355,http://www.ambmobilitat.cat/Principales/DatosParada.aspx?linea=0&version=0&cerca=1&punto=101056
679,1119,Av. República Argentina - Escipió,41.40864326,2.14706138,http://www.ambmobilitat.cat/Principales/DatosParada.aspx?linea=0&version=0&cerca=1&punto=001119
681,22,Av. República Argentina - Vallcarca,41.411365,2.143973,http://www.ambmobilitat.cat/Principales/DatosParada.aspx?linea=0&version=0&cerca=1&punto=000022
682,1509,Av. República Argentina - Mare de Déu del Carmel,41.411604,2.141516,http://www.ambmobilitat.cat/Principales/DatosParada.aspx?linea=0&version=0&cerca=1&punto=001509
684,101065,Av. Ramon Berenguer IV - Aragó,41.45944246,2.2080413,http://www.ambmobilitat.cat/Principales/DatosParada.aspx?linea=0&version=0&cerca=1&punto=101065
685,101066,Av. Ramon Berenguer IV - Aragó,41.45980736,2.20787754,http://www.ambmobilitat.cat/Principales/DatosParada.aspx?linea=0&version=0&cerca=1&punto=101066
687,101068,Av. Ramon Berenguer IV - Galícia,41.46212642,2.20798733,http://www.ambmobilitat.cat/Principales/DatosParada.aspx?linea=0&version=0&cerca=1&punto=101068
689,108574,Av. Ramon Berenguer IV - Lluís Vives,41.46369721,2.2081477,http://www.ambmobilitat.cat/Principales/DatosParada.aspx?linea=0&version=0&cerca=1&punto=108574
690,101071,Av. Ramon Berenguer IV - Av. Primavera,41.46193472,2.20772628,http://www.ambmobilitat.cat/Principales/DatosParada.aspx?linea=0&version=0&cerca=1&punto=101071
691,878,Av. Rasos de Peguera - Meridiana,41.462148,2.179674,http://www.ambmobilitat.cat/Principales/DatosParada.aspx?linea=0&version=0&cerca=1&punto=000878
695,1706,Av. Rasos de Peguera - Pedraforca,41.460493,2.173803,http://www.ambmobilitat.cat/Principales/DatosParada.aspx?linea=0&version=0&cerca=1&punto=001706
701,3289,Vall d'Aran - Av. del Remolar,41.32835096,2.08676753,http://www.ambmobilitat.cat/Principales/DatosParada.aspx?linea=0&version=0&cerca=1&punto=003289
703,1043,Av. Remolar - Av. Onze de Setembre,41.31970406,2.09038742,http://www.ambmobilitat.cat/Principales/DatosParada.aspx?linea=0&version=0&cerca=1&punto=001043
704,1044,Av. del Remolar - Pl. de la Granja,41.318644,2.091294,http://www.ambmobilitat.cat/Principales/DatosParada.aspx?linea=0&version=0&cerca=1&punto=001044
705,585,Av. Remolar - Riu Guadalquivir,41.317882,2.091617,http://www.ambmobilitat.cat/Principales/DatosParada.aspx?linea=0&version=0&cerca=1&punto=000585
706,1543,Av. República Argentina - Pl. Alfonso Comín,41.413428,2.138571,http://www.ambmobilitat.cat/Principales/DatosParada.aspx?linea=0&version=0&cerca=1&punto=001543
708,3435,Av. Sant Ildefons - Av. República Argentina,41.36365695,2.08367437,http://www.ambmobilitat.cat/Principales/DatosParada.aspx?linea=0&version=0&cerca=1&punto=003435
709,101112,Av. República Argentina - Pl. Sant Ildefons,41.36370482,2.08522074,http://www.ambmobilitat.cat/Principales/DatosParada.aspx?linea=0&version=0&cerca=1&punto=101112
710,262,Av. República Argentina - Baixada Gomis,41.41164168,2.14255448,http://www.ambmobilitat.cat/Principales/DatosParada.aspx?linea=0&version=0&cerca=1&punto=000262
711,742,Av. de la Ribera - Pg. Rocamora,41.484815,2.190839,http://www.ambmobilitat.cat/Principales/DatosParada.aspx?linea=0&version=0&cerca=1&punto=000742
712,638,Av. de la Ribera - Mercat Municipal,41.48490361,2.19098709,http://www.ambmobilitat.cat/Principales/DatosParada.aspx?linea=0&version=0&cerca=1&punto=000638
713,1552,Av. de la Ribera - Llevant,41.47701381,2.18917848,http://www.ambmobilitat.cat/Principales/DatosParada.aspx?linea=0&version=0&cerca=1&punto=001552
722,101128,Av. de la Roureda - Circumval·lació,41.31997265,2.00759165,http://www.ambmobilitat.cat/Principales/DatosParada.aspx?linea=0&version=0&cerca=1&punto=101128
723,101129,Av. de la Roureda - Dr. Reig,41.32149111,2.00949109,http://www.ambmobilitat.cat/Principales/DatosParada.aspx?linea=0&version=0&cerca=1&punto=101129
724,101130,Av. Sabadell - Igualada,41.46529203,2.25104724,http://www.ambmobilitat.cat/Principales/DatosParada.aspx?linea=0&version=0&cerca=1&punto=101130
725,101131,Pl. de Pomar - Av. de Terrassa,41.46512165,2.25093052,http://www.ambmobilitat.cat/Principales/DatosParada.aspx?linea=0&version=0&cerca=1&punto=101131
726,101132,Av. Salvador Allende - Bellaterra,41.35703103,2.07399228,http://www.ambmobilitat.cat/Principales/DatosParada.aspx?linea=0&version=0&cerca=1&punto=101132
727,101133,Av. Salvador Allende - Empordà,41.35794003,2.07892521,http://www.ambmobilitat.cat/Principales/DatosParada.aspx?linea=0&version=0&cerca=1&punto=101133
730,101140,Pare Claret - Pl. Sardana,41.46984688,2.26613708,http://www.ambmobilitat.cat/Principales/DatosParada.aspx?linea=0&version=0&cerca=1&punto=101140
731,101141,Pare Claret - Pont Autopista C-31,41.46346472,2.26842265,http://www.ambmobilitat.cat/Principales/DatosParada.aspx?linea=0&version=0&cerca=1&punto=101141
732,1198,Av. Sant Ildefons - Dàlia,41.36218594,2.08242624,http://www.ambmobilitat.cat/Principales/DatosParada.aspx?linea=0&version=0&cerca=1&punto=001198
733,1199,Av. Sant Ildefons - Marfull,41.3605683,2.08114327,http://www.ambmobilitat.cat/Principales/DatosParada.aspx?linea=0&version=0&cerca=1&punto=001199
734,101147,Av. Sant Jordi - Pare Claret,41.47118468,2.26937424,http://www.ambmobilitat.cat/Principales/DatosParada.aspx?linea=0&version=0&cerca=1&punto=101147
735,101148,Pl. Ciurana - Pl. Vila d'Argelers,41.4709509,2.2725961,http://www.ambmobilitat.cat/Principales/DatosParada.aspx?linea=0&version=0&cerca=1&punto=101148
736,101149,Av. Sant Jordi - Vial Pedreres,41.47102727,2.26944992,http://www.ambmobilitat.cat/Principales/DatosParada.aspx?linea=0&version=0&cerca=1&punto=101149
738,101151,Ctra. de Sta. Coloma - Av. Alfons XIII,41.43383833,2.21654212,http://www.ambmobilitat.cat/Principales/DatosParada.aspx?linea=0&version=0&cerca=1&punto=101151
741,630,Av. de Sarrià - Josep Tarradellas,41.390403,2.144807,http://www.ambmobilitat.cat/Principales/DatosParada.aspx?linea=0&version=0&cerca=1&punto=000630
747,1202,Av. Sant Ildefons - Avet,41.3655054,2.082789,http://www.ambmobilitat.cat/Principales/DatosParada.aspx?linea=0&version=0&cerca=1&punto=001202
748,352,Av. Sant Ildefons - Cirerer,41.36562032,2.08293581,http://www.ambmobilitat.cat/Principales/DatosParada.aspx?linea=0&version=0&cerca=1&punto=000352
749,1655,Av. Sant Ildefons - Av. República Argentina,41.36278901,2.08284905,http://www.ambmobilitat.cat/Principales/DatosParada.aspx?linea=0&version=0&cerca=1&punto=001655
750,1656,Av. Sant Ildefons - Bruc,41.36049501,2.08088258,http://www.ambmobilitat.cat/Principales/DatosParada.aspx?linea=0&version=0&cerca=1&punto=001656
751,1203,Av. Sant Ildefons - Ctra. d'Esplugues,41.367344,2.0804238,http://www.ambmobilitat.cat/Principales/DatosParada.aspx?linea=0&version=0&cerca=1&punto=001203
752,3038,Av. del Baix Llobregat - St. Antoni M. Claret,41.367782,2.08033,http://www.ambmobilitat.cat/Principales/DatosParada.aspx?linea=0&version=0&cerca=1&punto=003038
754,3119,Ctra. de Sant Boi - Campoamor,41.35536838,2.06454657,http://www.ambmobilitat.cat/Principales/DatosParada.aspx?linea=0&version=0&cerca=1&punto=003119
755,84,Av. Santa Coloma - Francesc Moragas,41.448185,2.207882,http://www.ambmobilitat.cat/Principales/DatosParada.aspx?linea=0&version=0&cerca=1&punto=000084
756,85,Av. Sta. Coloma - Mossèn Jacint Verdaguer,41.44504014,2.20956527,http://www.ambmobilitat.cat/Principales/DatosParada.aspx?linea=0&version=0&cerca=1&punto=000085
757,2575,Av. Sta. Coloma - Pg. Llorenç Serra,41.450509,2.206815,http://www.ambmobilitat.cat/Principales/DatosParada.aspx?linea=0&version=0&cerca=1&punto=002575
758,108832,Av. de Terrassa - Av. de l'Hospitalet,41.46809978,2.2483779,http://www.ambmobilitat.cat/Principales/DatosParada.aspx?linea=0&version=0&cerca=1&punto=108832
759,101194,Av. de Terrassa - Olesa de Montserrat,41.46611994,2.24920909,http://www.ambmobilitat.cat/Principales/DatosParada.aspx?linea=0&version=0&cerca=1&punto=101194
760,101195,Av. de Terrassa - Vallromanes,41.46618811,2.24935593,http://www.ambmobilitat.cat/Principales/DatosParada.aspx?linea=0&version=0&cerca=1&punto=101195
761,101196,Av. de Terrassa - Arenys de Mar,41.46741601,2.24905579,http://www.ambmobilitat.cat/Principales/DatosParada.aspx?linea=0&version=0&cerca=1&punto=101196
773,101212,Av. Turó - Av. del Parc,41.46943617,2.28139389,http://www.ambmobilitat.cat/Principales/DatosParada.aspx?linea=0&version=0&cerca=1&punto=101212
774,101213,Av. Turó - Camí Ral,41.46755624,2.28118033,http://www.ambmobilitat.cat/Principales/DatosParada.aspx?linea=0&version=0&cerca=1&punto=101213
799,1190,Bac de Roda - Gran Via,41.412647,2.1974614,http://www.ambmobilitat.cat/Principales/DatosParada.aspx?linea=0&version=0&cerca=1&punto=001190
800,191,Bac de Roda - Cristóbal de Moura,41.4081942,2.20330217,http://www.ambmobilitat.cat/Principales/DatosParada.aspx?linea=0&version=0&cerca=1&punto=000191
806,1131,Bac de Roda - Llull,41.40560986,2.2067449,http://www.ambmobilitat.cat/Principales/DatosParada.aspx?linea=0&version=0&cerca=1&punto=001131
807,578,Bac de Roda - Bolívia,41.409805,2.2011693,http://www.ambmobilitat.cat/Principales/DatosParada.aspx?linea=0&version=0&cerca=1&punto=000578
821,101276,Baldomer Solà - Cervantes,41.44317961,2.23453989,http://www.ambmobilitat.cat/Principales/DatosParada.aspx?linea=0&version=0&cerca=1&punto=101276
822,101277,Baldomer Solà - Latrilla,41.4478296,2.24032995,http://www.ambmobilitat.cat/Principales/DatosParada.aspx?linea=0&version=0&cerca=1&punto=101277
823,101278,Baldomer Solà - Torrent d'en Valls,41.44531485,2.2372612,http://www.ambmobilitat.cat/Principales/DatosParada.aspx?linea=0&version=0&cerca=1&punto=101278
827,1530,Balmes - Copèrnic,41.40256243,2.14507088,http://www.ambmobilitat.cat/Principales/DatosParada.aspx?linea=0&version=0&cerca=1&punto=001530
828,1353,Balmes - Joaquim Folguera,41.406784,2.138735,http://www.ambmobilitat.cat/Principales/DatosParada.aspx?linea=0&version=0&cerca=1&punto=001353
829,1352,Balmes - Mitre,41.404843,2.140169,http://www.ambmobilitat.cat/Principales/DatosParada.aspx?linea=0&version=0&cerca=1&punto=001352
830,1529,Balmes - Mitre,41.40403668,2.14163265,http://www.ambmobilitat.cat/Principales/DatosParada.aspx?linea=0&version=0&cerca=1&punto=001529
833,175,Balmes - Aragó,41.38938,2.1624,http://www.ambmobilitat.cat/Principales/DatosParada.aspx?linea=0&version=0&cerca=1&punto=000175
834,1354,Balmes - Pl. John F. Kennedy,41.409492,2.1374025,http://www.ambmobilitat.cat/Principales/DatosParada.aspx?linea=0&version=0&cerca=1&punto=001354
836,562,Balmes - Gran Via,41.387613,2.164736,http://www.ambmobilitat.cat/Principales/DatosParada.aspx?linea=0&version=0&cerca=1&punto=000562
839,1390,Balmes - Trav. de Gràcia,41.398323,2.1511636,http://www.ambmobilitat.cat/Principales/DatosParada.aspx?linea=0&version=0&cerca=1&punto=001390
840,1493,Balmes - València,41.391139,2.160075,http://www.ambmobilitat.cat/Principales/DatosParada.aspx?linea=0&version=0&cerca=1&punto=001493
842,221,Balmes - Rosselló,41.39356,2.156883,http://www.ambmobilitat.cat/Principales/DatosParada.aspx?linea=0&version=0&cerca=1&punto=000221
845,519,Balmes - Pl. Joaquim Folguera,41.40574464,2.13911929,http://www.ambmobilitat.cat/Principales/DatosParada.aspx?linea=0&version=0&cerca=1&punto=000519
846,336,Balmes - Via Augusta,41.40086,2.147888,http://www.ambmobilitat.cat/Principales/DatosParada.aspx?linea=0&version=0&cerca=1&punto=000336
850,515,Balmes - Pàdua,41.40305876,2.14410134,http://www.ambmobilitat.cat/Principales/DatosParada.aspx?linea=0&version=0&cerca=1&punto=000515
852,289,Balmes - Diagonal,41.395817,2.154055,http://www.ambmobilitat.cat/Principales/DatosParada.aspx?linea=0&version=0&cerca=1&punto=000289
854,101322,Av. del Mar - Camí antic a València,41.29004941,2.01544807,http://www.ambmobilitat.cat/Principales/DatosParada.aspx?linea=0&version=0&cerca=1&punto=101322
855,101323,Barcelona - Av. Isabel la Catòlica,41.36170717,2.10557275,http://www.ambmobilitat.cat/Principales/DatosParada.aspx?linea=0&version=0&cerca=1&punto=101323
857,101328,Barcelona - Rbla. Just Oliveras,41.36090828,2.10197828,http://www.ambmobilitat.cat/Principales/DatosParada.aspx?linea=0&version=0&cerca=1&punto=101328
860,101334,Barcelona - Tecla Sala,41.36021138,2.09813409,http://www.ambmobilitat.cat/Principales/DatosParada.aspx?linea=0&version=0&cerca=1&punto=101334
861,1342,Pl. de Mossèn Clapés,41.441726,2.18752,http://www.ambmobilitat.cat/Principales/DatosParada.aspx?linea=0&version=0&cerca=1&punto=001342
862,1341,Bartrina - Pont del Dragó,41.43957405,2.18617132,http://www.ambmobilitat.cat/Principales/DatosParada.aspx?linea=0&version=0&cerca=1&punto=001341
864,101341,Baixada de la Plana - Tajo,41.42954807,2.15921416,http://www.ambmobilitat.cat/Principales/DatosParada.aspx?linea=0&version=0&cerca=1&punto=101341
867,946,Berenguer de Palou - Pont del Treball,41.42329,2.1918373,http://www.ambmobilitat.cat/Principales/DatosParada.aspx?linea=0&version=0&cerca=1&punto=000946
868,947,Berenguer de Palou - Pare Manyanet,41.427496,2.191686,http://www.ambmobilitat.cat/Principales/DatosParada.aspx?linea=0&version=0&cerca=1&punto=000947
869,628,Berlín - Josep Tarradellas,41.385052,2.142032,http://www.ambmobilitat.cat/Principales/DatosParada.aspx?linea=0&version=0&cerca=1&punto=000628
870,396,Berlín - Numància,41.383507,2.139746,http://www.ambmobilitat.cat/Principales/DatosParada.aspx?linea=0&version=0&cerca=1&punto=000396
872,1699,Bernat Metge - Rambla Prim,41.420458,2.211899,http://www.ambmobilitat.cat/Principales/DatosParada.aspx?linea=0&version=0&cerca=1&punto=001699
873,1666,Bernat Metge - Argentina,41.420188,2.211767,http://www.ambmobilitat.cat/Principales/DatosParada.aspx?linea=0&version=0&cerca=1&punto=001666
874,101354,Bernat Metge - Quevedo,41.4393015,2.22642892,http://www.ambmobilitat.cat/Principales/DatosParada.aspx?linea=0&version=0&cerca=1&punto=101354
875,113,Bifurcació - Pl. Sant Joan,41.46967325,2.18089416,http://www.ambmobilitat.cat/Principales/DatosParada.aspx?linea=0&version=0&cerca=1&punto=000113
876,112,Bifurcació - del Molí,41.47183243,2.18345567,http://www.ambmobilitat.cat/Principales/DatosParada.aspx?linea=0&version=0&cerca=1&punto=000112
877,116,Mina - del Molí,41.469196,2.180825,http://www.ambmobilitat.cat/Principales/DatosParada.aspx?linea=0&version=0&cerca=1&punto=000116
882,101370,Bisbe Català - Pl. Església,41.4839349,2.2680895,http://www.ambmobilitat.cat/Principales/DatosParada.aspx?linea=0&version=0&cerca=1&punto=101370
884,506,Biscaia - Ctra. de Mataró,41.42364267,2.21100544,http://www.ambmobilitat.cat/Principales/DatosParada.aspx?linea=0&version=0&cerca=1&punto=000506
889,118,Bolívar - Ballester,41.409254,2.147712,http://www.ambmobilitat.cat/Principales/DatosParada.aspx?linea=0&version=0&cerca=1&punto=000118
890,101383,Bonaventura Calopa - Bonaventura Aribau,41.34043544,2.04578217,http://www.ambmobilitat.cat/Principales/DatosParada.aspx?linea=0&version=0&cerca=1&punto=101383
896,101393,Pl. Sardana - Av. Cornellà,41.37204001,2.08352705,http://www.ambmobilitat.cat/Principales/DatosParada.aspx?linea=0&version=0&cerca=1&punto=101393
898,1263,Bruc - Còrsega,41.39884,2.163439,http://www.ambmobilitat.cat/Principales/DatosParada.aspx?linea=0&version=0&cerca=1&punto=001263
900,735,Bruc - Mossèn Cinto Verdaguer,41.44898535,2.21787097,http://www.ambmobilitat.cat/Principales/DatosParada.aspx?linea=0&version=0&cerca=1&punto=000735
901,839,Bruc - Provença,41.39723117,2.1656595,http://www.ambmobilitat.cat/Principales/DatosParada.aspx?linea=0&version=0&cerca=1&punto=000839
911,2024,Calderón de la Barca - Alcalde de Zalamea,41.420629,2.15684,http://www.ambmobilitat.cat/Principales/DatosParada.aspx?linea=0&version=0&cerca=1&punto=002024
912,101418,Calderón de la Barca - Estadi,41.44778943,2.22298819,http://www.ambmobilitat.cat/Principales/DatosParada.aspx?linea=0&version=0&cerca=1&punto=101418
913,2023,Calderón de la Barca - Ctra. del Carmel,41.4190512,2.15735119,http://www.ambmobilitat.cat/Principales/DatosParada.aspx?linea=0&version=0&cerca=1&punto=002023
915,101422,Calderón de la Barca - Gayarre,41.44489165,2.22446963,http://www.ambmobilitat.cat/Principales/DatosParada.aspx?linea=0&version=0&cerca=1&punto=101422
916,101423,Calderón de la Barca - Llobregós,41.42323974,2.15482557,http://www.ambmobilitat.cat/Principales/DatosParada.aspx?linea=0&version=0&cerca=1&punto=101423
918,1426,Calvet - Tenor Viñas,41.396011,2.141827,http://www.ambmobilitat.cat/Principales/DatosParada.aspx?linea=0&version=0&cerca=1&punto=001426
919,287,Calvet - Diagonal,41.3937903,2.14461477,http://www.ambmobilitat.cat/Principales/DatosParada.aspx?linea=0&version=0&cerca=1&punto=000287
921,1328,Camèlies - Secretari Coloma,41.411349,2.15977,http://www.ambmobilitat.cat/Principales/DatosParada.aspx?linea=0&version=0&cerca=1&punto=001328
923,1086,Camèlies - Praga,41.41311901,2.16298504,http://www.ambmobilitat.cat/Principales/DatosParada.aspx?linea=0&version=0&cerca=1&punto=001086
931,198,Camí de Can Caralleu - Ronda de Dalt,41.4018782,2.11439691,http://www.ambmobilitat.cat/Principales/DatosParada.aspx?linea=0&version=0&cerca=1&punto=000198
932,101451,Juan Ramón Jiménez - Aprestadora,41.36022778,2.11851169,http://www.ambmobilitat.cat/Principales/DatosParada.aspx?linea=0&version=0&cerca=1&punto=101451
941,2128,Capità Arenas - Manuel de Falla,41.39306845,2.12486609,http://www.ambmobilitat.cat/Principales/DatosParada.aspx?linea=0&version=0&cerca=1&punto=002128
942,866,Capità Arenas - Pg. Manuel Girona,41.39087615,2.12581055,http://www.ambmobilitat.cat/Principales/DatosParada.aspx?linea=0&version=0&cerca=1&punto=000866
945,159,Caracas - Potosí,41.443577,2.202809,http://www.ambmobilitat.cat/Principales/DatosParada.aspx?linea=0&version=0&cerca=1&punto=000159
948,743,Bogatell - Pg. Jaume I,41.482027,2.188942,http://www.ambmobilitat.cat/Principales/DatosParada.aspx?linea=0&version=0&cerca=1&punto=000743
950,101477,Carles Martí i Vilà - Dr. Antoni Pujadas,41.34857118,2.03921464,http://www.ambmobilitat.cat/Principales/DatosParada.aspx?linea=0&version=0&cerca=1&punto=101477
953,101480,Pg. Marítim - carrer núm. 5,41.26559839,1.97598769,http://www.ambmobilitat.cat/Principales/DatosParada.aspx?linea=0&version=0&cerca=1&punto=101480
954,1638,Carrer A - Carrer número 3,41.334949,2.140311,http://www.ambmobilitat.cat/Principales/DatosParada.aspx?linea=0&version=0&cerca=1&punto=001638
955,1641,Carrer A - Carrer número 3,41.331041,2.137357,http://www.ambmobilitat.cat/Principales/DatosParada.aspx?linea=0&version=0&cerca=1&punto=001641
956,101486,Carrer A - Carrer 1,41.34448295,2.14619032,http://www.ambmobilitat.cat/Principales/DatosParada.aspx?linea=0&version=0&cerca=1&punto=101486
957,101487,Carrer A - Guardia Urbana ,41.34228867,2.14497687,http://www.ambmobilitat.cat/Principales/DatosParada.aspx?linea=0&version=0&cerca=1&punto=101487
958,1639,Carrer A - Comissaria Portuària,41.338055,2.1421943,http://www.ambmobilitat.cat/Principales/DatosParada.aspx?linea=0&version=0&cerca=1&punto=001639
959,1640,Carrer A - Comissaria Portuària,41.337416,2.141249,http://www.ambmobilitat.cat/Principales/DatosParada.aspx?linea=0&version=0&cerca=1&punto=001640
960,1642,Carrer A - Carrer número 4,41.329164,2.136191,http://www.ambmobilitat.cat/Principales/DatosParada.aspx?linea=0&version=0&cerca=1&punto=001642
961,1741,Cotxeres TB Zona Franca,41.33090236,2.13768689,http://www.ambmobilitat.cat/Principales/DatosParada.aspx?linea=0&version=0&cerca=1&punto=001741
964,1645,Carrer D - Carrer número 4,41.33011,2.128757,http://www.ambmobilitat.cat/Principales/DatosParada.aspx?linea=0&version=0&cerca=1&punto=001645
965,1646,Carrer D - Carrer número 5,41.327592,2.127203,http://www.ambmobilitat.cat/Principales/DatosParada.aspx?linea=0&version=0&cerca=1&punto=001646
966,1647,Carrer D - Carrer número 6,41.324901,2.125546,http://www.ambmobilitat.cat/Principales/DatosParada.aspx?linea=0&version=0&cerca=1&punto=001647
967,843,Mercabarna,41.331174,2.115545,http://www.ambmobilitat.cat/Principales/DatosParada.aspx?linea=0&version=0&cerca=1&punto=000843
968,1643,Mercabarna - Mercat del Peix,41.334052,2.117334,http://www.ambmobilitat.cat/Principales/DatosParada.aspx?linea=0&version=0&cerca=1&punto=001643
972,1617,Carrer número 4 - Mercabarna,41.334345,2.119037,http://www.ambmobilitat.cat/Principales/DatosParada.aspx?linea=0&version=0&cerca=1&punto=001617
973,1614,Carrer número 4 - Carrer B,41.329619,2.133333,http://www.ambmobilitat.cat/Principales/DatosParada.aspx?linea=0&version=0&cerca=1&punto=001614
974,1610,Carrer número 4 - Carrer C,41.329827,2.131949,http://www.ambmobilitat.cat/Principales/DatosParada.aspx?linea=0&version=0&cerca=1&punto=001610
975,1619,Carrer número 4 - Carrer E,41.33217707,2.12537262,http://www.ambmobilitat.cat/Principales/DatosParada.aspx?linea=0&version=0&cerca=1&punto=001619
976,1618,Carrer número 4 - Carrer F,41.33305786,2.12287683,http://www.ambmobilitat.cat/Principales/DatosParada.aspx?linea=0&version=0&cerca=1&punto=001618
977,101510,Castanyer - Poliesportiu Can Roca,41.28275984,1.97036266,http://www.ambmobilitat.cat/Principales/DatosParada.aspx?linea=0&version=0&cerca=1&punto=101510
980,844,Carrer número 6 - Carrer F,41.324991,2.118123,http://www.ambmobilitat.cat/Principales/DatosParada.aspx?linea=0&version=0&cerca=1&punto=000844
989,101523,Ctra. Laureà Miró - Agricultura,41.39361097,2.03611119,http://www.ambmobilitat.cat/Principales/DatosParada.aspx?linea=0&version=0&cerca=1&punto=101523
991,101525,Ctra. Laureà Miró - Comerç,41.3912196,2.03752157,http://www.ambmobilitat.cat/Principales/DatosParada.aspx?linea=0&version=0&cerca=1&punto=101525
996,101533,Ctra. Laureà Mirò - La Salut,41.38728885,2.03938206,http://www.ambmobilitat.cat/Principales/DatosParada.aspx?linea=0&version=0&cerca=1&punto=101533
1002,1439,Ctra. de Collblanc - Av. Solanic i Riera,41.37589295,2.11067324,http://www.ambmobilitat.cat/Principales/DatosParada.aspx?linea=0&version=0&cerca=1&punto=001439
1004,643,Ctra. d'Esplugues - Les Garrigues,41.367586,2.079059,http://www.ambmobilitat.cat/Principales/DatosParada.aspx?linea=0&version=0&cerca=1&punto=000643
1005,1200,Ctra. d'Esplugues - La Miranda,41.361136,2.07278,http://www.ambmobilitat.cat/Principales/DatosParada.aspx?linea=0&version=0&cerca=1&punto=001200
1006,3120,Pl. de l'Església,41.356209,2.070049,http://www.ambmobilitat.cat/Principales/DatosParada.aspx?linea=0&version=0&cerca=1&punto=003120
1007,1201,Ctra. d'Esplugues - Pl. del Sol,41.364401,2.075946,http://www.ambmobilitat.cat/Principales/DatosParada.aspx?linea=0&version=0&cerca=1&punto=001201
1008,101549,Ctra. de l'Hospitalet - Joan N. Garcia Nieto,41.35838028,2.09267954,http://www.ambmobilitat.cat/Principales/DatosParada.aspx?linea=0&version=0&cerca=1&punto=101549
1009,599,Ctra. de l'Hospitalet - Camí del Quitllet,41.35486575,2.08217419,http://www.ambmobilitat.cat/Principales/DatosParada.aspx?linea=0&version=0&cerca=1&punto=000599
1010,598,Ctra. de l'Hospitalet - Parc de Can Mercader,41.355783,2.084528,http://www.ambmobilitat.cat/Principales/DatosParada.aspx?linea=0&version=0&cerca=1&punto=000598
1011,101552,Ctra. de l'Hospitalet - Rbla. Solanes,41.35779465,2.09035486,http://www.ambmobilitat.cat/Principales/DatosParada.aspx?linea=0&version=0&cerca=1&punto=101552
1013,1697,Ctra. Reial - Ateneu,41.3786801,2.07745132,http://www.ambmobilitat.cat/Principales/DatosParada.aspx?linea=0&version=0&cerca=1&punto=001697
1016,1749,Ctra. Reial - Rambla Modolell,41.37860309,2.07688287,http://www.ambmobilitat.cat/Principales/DatosParada.aspx?linea=0&version=0&cerca=1&punto=001749
1020,101565,Camí antic a València - Autovia de Castelldefels,41.305507,2.0579605,http://www.ambmobilitat.cat/Principales/DatosParada.aspx?linea=0&version=0&cerca=1&punto=101565
1021,101566,Ctra. Viladecans - Ctra. a l'autovia Castelldefels,41.30209339,2.04532009,http://www.ambmobilitat.cat/Principales/DatosParada.aspx?linea=0&version=0&cerca=1&punto=101566
1023,282,Casanova - Diagonal,41.393223,2.1486104,http://www.ambmobilitat.cat/Principales/DatosParada.aspx?linea=0&version=0&cerca=1&punto=000282
1025,1088,Casanova - París,41.39132747,2.15108776,http://www.ambmobilitat.cat/Principales/DatosParada.aspx?linea=0&version=0&cerca=1&punto=001088
1026,214,Casanova - Hospital Clínic,41.3904068,2.15256027,http://www.ambmobilitat.cat/Principales/DatosParada.aspx?linea=0&version=0&cerca=1&punto=000214
1028,101576,Casp - Girona,41.39247471,2.17491976,http://www.ambmobilitat.cat/Principales/DatosParada.aspx?linea=0&version=0&cerca=1&punto=101576
1035,101584,Pl. de la Vila - Camí Ral,41.46661137,2.27943314,http://www.ambmobilitat.cat/Principales/DatosParada.aspx?linea=0&version=0&cerca=1&punto=101584
1041,101593,Rda. Sant Ramon - Cerdanya,41.33839922,2.0342861,http://www.ambmobilitat.cat/Principales/DatosParada.aspx?linea=0&version=0&cerca=1&punto=101593
1042,101594,Cerdanya - Mn. Pere Tarrès,41.34331531,2.04369886,http://www.ambmobilitat.cat/Principales/DatosParada.aspx?linea=0&version=0&cerca=1&punto=101594
1047,101599,Av. Jordana - Parc del Tramvia,41.4714446,2.277384,http://www.ambmobilitat.cat/Principales/DatosParada.aspx?linea=0&version=0&cerca=1&punto=101599
1050,101608,Camí Ral - Riera d'en Font,41.4680815,2.28414158,http://www.ambmobilitat.cat/Principales/DatosParada.aspx?linea=0&version=0&cerca=1&punto=101608
1052,101610,Camí Ral - Escoles,41.46782617,2.28277193,http://www.ambmobilitat.cat/Principales/DatosParada.aspx?linea=0&version=0&cerca=1&punto=101610
1054,476,Rbla. del Carmel,41.426037,2.158313,http://www.ambmobilitat.cat/Principales/DatosParada.aspx?linea=0&version=0&cerca=1&punto=000476
1055,1114,Dr. Aiguader - La Barceloneta,41.38259576,2.18762074,http://www.ambmobilitat.cat/Principales/DatosParada.aspx?linea=0&version=0&cerca=1&punto=001114
1056,414,Zoo,41.38755739,2.19525933,http://www.ambmobilitat.cat/Principales/DatosParada.aspx?linea=0&version=0&cerca=1&punto=000414
1057,413,Av. Litoral - Trelawny,41.386258,2.194843,http://www.ambmobilitat.cat/Principales/DatosParada.aspx?linea=0&version=0&cerca=1&punto=000413
1058,1478,Dr. Aiguader - Estació de França,41.38299353,2.18722322,http://www.ambmobilitat.cat/Principales/DatosParada.aspx?linea=0&version=0&cerca=1&punto=001478
1059,101619,Circumval·lació - Sant Bartomeu,41.44300228,2.21620968,http://www.ambmobilitat.cat/Principales/DatosParada.aspx?linea=0&version=0&cerca=1&punto=101619
1060,1659,Ciutat d'Asunción - Tucumán,41.44458223,2.19925315,http://www.ambmobilitat.cat/Principales/DatosParada.aspx?linea=0&version=0&cerca=1&punto=001659
1066,381,Clot - Biscaia,41.413988,2.190631,http://www.ambmobilitat.cat/Principales/DatosParada.aspx?linea=0&version=0&cerca=1&punto=000381
1067,387,Clot - Pont de Bac de Roda,41.414917,2.190514,http://www.ambmobilitat.cat/Principales/DatosParada.aspx?linea=0&version=0&cerca=1&punto=000387
1081,101654,Ctra. de Bcn. a Sta. C. de Calafell-Mn.Pere Tarrés,41.34051963,2.04776445,http://www.ambmobilitat.cat/Principales/DatosParada.aspx?linea=0&version=0&cerca=1&punto=101654
1083,101656,Ctra. de Bcn. a Sta. Creu de C. - Rbla. de Lluch,41.30454266,2.00957838,http://www.ambmobilitat.cat/Principales/DatosParada.aspx?linea=0&version=0&cerca=1&punto=101656
1084,101657,Ctra. de Bcn. a Sta. Creu de C-Av. Bertran i Güell,41.30253439,2.00753566,http://www.ambmobilitat.cat/Principales/DatosParada.aspx?linea=0&version=0&cerca=1&punto=101657
1085,101658,Ctra. de Bcn. a Sta. Creu de C. - Ctra. C-234,41.29925336,2.00431305,http://www.ambmobilitat.cat/Principales/DatosParada.aspx?linea=0&version=0&cerca=1&punto=101658
1086,101660,Ctra. de Bcn. a Sta. C. Calafell - Dr. J. Castells,41.32842487,2.03749649,http://www.ambmobilitat.cat/Principales/DatosParada.aspx?linea=0&version=0&cerca=1&punto=101660
1087,101661,Ctra. de Bcn. a Sta. C. de Calafell - Av. Progrés,41.32434501,2.03200347,http://www.ambmobilitat.cat/Principales/DatosParada.aspx?linea=0&version=0&cerca=1&punto=101661
1088,101662,Ctra. de Bcn. a Sta. Creu de C.-Av. M. D. de Núria,41.3244998,2.03174866,http://www.ambmobilitat.cat/Principales/DatosParada.aspx?linea=0&version=0&cerca=1&punto=101662
1089,101664,Ctra. de Bcn. a Sta. Creu de Calafell-Pl. d'Europa,41.33629604,2.04636925,http://www.ambmobilitat.cat/Principales/DatosParada.aspx?linea=0&version=0&cerca=1&punto=101664
1090,101665,Ctra. de Bcn. a Sta. Creu de C. - Ptge. Solsonès,41.33092895,2.04035093,http://www.ambmobilitat.cat/Principales/DatosParada.aspx?linea=0&version=0&cerca=1&punto=101665
1091,101666,Ctra. de Bcn. a Sta. Creu de C.- Pl. del Llobregat,41.33274605,2.04269717,http://www.ambmobilitat.cat/Principales/DatosParada.aspx?linea=0&version=0&cerca=1&punto=101666
1092,101669,Ctra. de Bcn. a Sta. Creu de C.-Riera de Fonollar,41.32849577,2.03696049,http://www.ambmobilitat.cat/Principales/DatosParada.aspx?linea=0&version=0&cerca=1&punto=101669
1093,101670,Ctra. de Bcn. a Sta. C. de Calafell - Àlaba,41.33097345,2.04080716,http://www.ambmobilitat.cat/Principales/DatosParada.aspx?linea=0&version=0&cerca=1&punto=101670
1094,101671,Ctra. de Bcn. a Sta. C. de Calafell-Pl. Llobregat,41.33345201,2.04417633,http://www.ambmobilitat.cat/Principales/DatosParada.aspx?linea=0&version=0&cerca=1&punto=101671
1096,101675,Ctra. de Barcelona - Torrent Fondo,41.32077961,2.02717667,http://www.ambmobilitat.cat/Principales/DatosParada.aspx?linea=0&version=0&cerca=1&punto=101675
1097,101676,Ctra. de Barcelona - Ctra. del Prat,41.31861494,2.02416317,http://www.ambmobilitat.cat/Principales/DatosParada.aspx?linea=0&version=0&cerca=1&punto=101676
1098,101677,Ctra. de Barcelona - Camí Fondo,41.32073912,2.02666429,http://www.ambmobilitat.cat/Principales/DatosParada.aspx?linea=0&version=0&cerca=1&punto=101677
1099,101681,Ctra. de Canyet - Av. Llenguadoc,41.4656289,2.23778261,http://www.ambmobilitat.cat/Principales/DatosParada.aspx?linea=0&version=0&cerca=1&punto=101681
1100,101683,Ctra. de Canyet - Can Tiano,41.46764294,2.23512287,http://www.ambmobilitat.cat/Principales/DatosParada.aspx?linea=0&version=0&cerca=1&punto=101683
1101,101685,Ctra. de Canyet - Mas Felip,41.46548675,2.23776698,http://www.ambmobilitat.cat/Principales/DatosParada.aspx?linea=0&version=0&cerca=1&punto=101685
1102,1460,Av. de Cornellà - Manuel Riera,41.374844,2.086176,http://www.ambmobilitat.cat/Principales/DatosParada.aspx?linea=0&version=0&cerca=1&punto=001460
1103,748,Av. de Cornellà - Pl. Sardana,41.37277,2.084174,http://www.ambmobilitat.cat/Principales/DatosParada.aspx?linea=0&version=0&cerca=1&punto=000748
1104,644,Av. de Cornellà - Milà i Pí,41.37186775,2.0829138,http://www.ambmobilitat.cat/Principales/DatosParada.aspx?linea=0&version=0&cerca=1&punto=000644
1105,1411,Av. de Cornellà - St. Francesc Xavier,41.3737078,2.0847204,http://www.ambmobilitat.cat/Principales/DatosParada.aspx?linea=0&version=0&cerca=1&punto=001411
1109,659,Ctra. d'Esplugues - Joan Maragall,41.356136,2.071682,http://www.ambmobilitat.cat/Principales/DatosParada.aspx?linea=0&version=0&cerca=1&punto=000659
1110,1653,Ctra. d'Esplugues - Domènech i Montaner,41.364417,2.07564,http://www.ambmobilitat.cat/Principales/DatosParada.aspx?linea=0&version=0&cerca=1&punto=001653
1111,1197,Ctra. d'Esplugues - Oliverar,41.36671579,2.07785932,http://www.ambmobilitat.cat/Principales/DatosParada.aspx?linea=0&version=0&cerca=1&punto=001197
1112,1654,Ctra. d'Esplugues - Torras i Bages,41.361171,2.072433,http://www.ambmobilitat.cat/Principales/DatosParada.aspx?linea=0&version=0&cerca=1&punto=001654
1113,101700,Barri Oliveres,41.46049935,2.19480142,http://www.ambmobilitat.cat/Principales/DatosParada.aspx?linea=0&version=0&cerca=1&punto=101700
1128,101717,Ctra. de l'Hospitalet - Energia,41.35853754,2.0938581,http://www.ambmobilitat.cat/Principales/DatosParada.aspx?linea=0&version=0&cerca=1&punto=101717
1129,597,Ctra. de l'Hospitalet - Av. Fama,41.35382,2.079924,http://www.ambmobilitat.cat/Principales/DatosParada.aspx?linea=0&version=0&cerca=1&punto=000597
1130,101719,Ctra. de l'Hospitalet - Torrent Vidrier,41.35771126,2.09063726,http://www.ambmobilitat.cat/Principales/DatosParada.aspx?linea=0&version=0&cerca=1&punto=101719
1131,101720,Ctra. de l'Hospitalet - Av. Pablo Picasso,41.35651097,2.08660131,http://www.ambmobilitat.cat/Principales/DatosParada.aspx?linea=0&version=0&cerca=1&punto=101720
1132,101722,Ctra. de Mataró - Ramon Martí i Alsina,41.45776769,2.26307987,http://www.ambmobilitat.cat/Principales/DatosParada.aspx?linea=0&version=0&cerca=1&punto=101722
1133,101723,Ctra. de Mataró - Km. 629,41.45846295,2.26443034,http://www.ambmobilitat.cat/Principales/DatosParada.aspx?linea=0&version=0&cerca=1&punto=101723
1134,101724,Ctra. de Mataró - Torrent de Vallmajor,41.45674555,2.26169387,http://www.ambmobilitat.cat/Principales/DatosParada.aspx?linea=0&version=0&cerca=1&punto=101724
1135,101726,Ctra. de Mataró - Ptge. Cussó,41.459969,2.26692457,http://www.ambmobilitat.cat/Principales/DatosParada.aspx?linea=0&version=0&cerca=1&punto=101726
1136,101727,Ctra. de Mataró - Velázquez,41.46037854,2.2672516,http://www.ambmobilitat.cat/Principales/DatosParada.aspx?linea=0&version=0&cerca=1&punto=101727
1139,101730,Ctra. N-150 - Ctra. C-17,41.46630001,2.17776884,http://www.ambmobilitat.cat/Principales/DatosParada.aspx?linea=0&version=0&cerca=1&punto=101730
1142,101733,Ctra. de Canyet - Pl. Mossèn Baranera,41.47029442,2.2332064,http://www.ambmobilitat.cat/Principales/DatosParada.aspx?linea=0&version=0&cerca=1&punto=101733
1144,101735,Ctra. de Canyet - Colònia  Sant Antoni,41.47268834,2.23488546,http://www.ambmobilitat.cat/Principales/DatosParada.aspx?linea=0&version=0&cerca=1&punto=101735
1145,101736,Ctra. de Canyet - Diagonal Costa Brava,41.47554468,2.23451745,http://www.ambmobilitat.cat/Principales/DatosParada.aspx?linea=0&version=0&cerca=1&punto=101736
1147,101738,Ctra. Montgat a Tiana - Ctra. de Mataró,41.46197973,2.26886766,http://www.ambmobilitat.cat/Principales/DatosParada.aspx?linea=0&version=0&cerca=1&punto=101738
1149,101740,Pare Claret - Marina,41.46188942,2.26910407,http://www.ambmobilitat.cat/Principales/DatosParada.aspx?linea=0&version=0&cerca=1&punto=101740
1154,101749,Ctra. del Prat - Km. 3,41.33209212,2.07182282,http://www.ambmobilitat.cat/Principales/DatosParada.aspx?linea=0&version=0&cerca=1&punto=101749
1157,101752,Ctra. del Prat - Cantàbria,41.33460069,2.05130525,http://www.ambmobilitat.cat/Principales/DatosParada.aspx?linea=0&version=0&cerca=1&punto=101752
1162,101760,Ctra. de Sant Climent - Miguel Hernández,41.32265217,2.01550479,http://www.ambmobilitat.cat/Principales/DatosParada.aspx?linea=0&version=0&cerca=1&punto=101760
1164,101762,Ctra. de la Vila -  Pl. St. Herblain,41.3144506,2.02168879,http://www.ambmobilitat.cat/Principales/DatosParada.aspx?linea=0&version=0&cerca=1&punto=101762
1165,109218,Ctra. de la Vila - Jaume Balmes,41.31426964,2.02163023,http://www.ambmobilitat.cat/Principales/DatosParada.aspx?linea=0&version=0&cerca=1&punto=109218
1166,101764,Ctra. Viladecans - Riera de Sant Climent,41.29973961,2.03449965,http://www.ambmobilitat.cat/Principales/DatosParada.aspx?linea=0&version=0&cerca=1&punto=101764
1167,101765,Ctra. de la Vila - Av. Segle XXI,41.31142456,2.02348512,http://www.ambmobilitat.cat/Principales/DatosParada.aspx?linea=0&version=0&cerca=1&punto=101765
1168,101767,Ctra. de Bcn. a Sta. Creu de C. - Isaac Peral,41.29012251,1.99243589,http://www.ambmobilitat.cat/Principales/DatosParada.aspx?linea=0&version=0&cerca=1&punto=101767
1170,101769,Ctra.de Bcn. a Sta. Creu de C.- Pol. Ind. Camí Ral,41.28822914,1.98986668,http://www.ambmobilitat.cat/Principales/DatosParada.aspx?linea=0&version=0&cerca=1&punto=101769
1171,101770,Ctra. de Bcn. a Sta. Creu de C. - Camí d'Agullé,41.29035639,1.99251534,http://www.ambmobilitat.cat/Principales/DatosParada.aspx?linea=0&version=0&cerca=1&punto=101770
1173,101772,Ctra. de Bcn. a Sta. Creu de C. - Av. R. de Parets,41.2994835,2.00428876,http://www.ambmobilitat.cat/Principales/DatosParada.aspx?linea=0&version=0&cerca=1&punto=101772
1175,101775,Hospital Can Ruti,41.4829791,2.23792128,http://www.ambmobilitat.cat/Principales/DatosParada.aspx?linea=0&version=0&cerca=1&punto=101775
1176,101776,Ctra. de Can Ruti - Av. de Cerdanya,41.46702021,2.2446646,http://www.ambmobilitat.cat/Principales/DatosParada.aspx?linea=0&version=0&cerca=1&punto=101776
1177,101778,Ctra. de Can Ruti - Av. de Conflent,41.46691821,2.24451489,http://www.ambmobilitat.cat/Principales/DatosParada.aspx?linea=0&version=0&cerca=1&punto=101778
1178,101779,Escola de Natura - Ctra. de Can Ruti,41.47125019,2.24366396,http://www.ambmobilitat.cat/Principales/DatosParada.aspx?linea=0&version=0&cerca=1&punto=101779
1179,101780,Ctra. de Can Ruti - escales Tanatori,41.48356613,2.24081975,http://www.ambmobilitat.cat/Principales/DatosParada.aspx?linea=0&version=0&cerca=1&punto=101780
1180,101781,Ctra. de Can Ruti - Centre disminuïts psíquics,41.47543788,2.23831271,http://www.ambmobilitat.cat/Principales/DatosParada.aspx?linea=0&version=0&cerca=1&punto=101781
1181,151,Av. de Cornellà - Montesa,41.369641,2.081109,http://www.ambmobilitat.cat/Principales/DatosParada.aspx?linea=0&version=0&cerca=1&punto=000151
1185,101800,Ctra. Font de l'Alzina - Sants,41.45977745,2.19789958,http://www.ambmobilitat.cat/Principales/DatosParada.aspx?linea=0&version=0&cerca=1&punto=101800
1186,101801,Ctra. Font de l'Alzina - Sants,41.45960774,2.19777736,http://www.ambmobilitat.cat/Principales/DatosParada.aspx?linea=0&version=0&cerca=1&punto=101801
1187,101803,Ctra. Font de l'Alzina - Av. Anselm de Riu,41.45829612,2.20117527,http://www.ambmobilitat.cat/Principales/DatosParada.aspx?linea=0&version=0&cerca=1&punto=101803
1188,101804,Ctra. Font de l'Alzina - Lluís Nicolau,41.45822308,2.19935516,http://www.ambmobilitat.cat/Principales/DatosParada.aspx?linea=0&version=0&cerca=1&punto=101804
1189,101805,Ctra. Font de l'Alzina núm. 101,41.46030236,2.19630741,http://www.ambmobilitat.cat/Principales/DatosParada.aspx?linea=0&version=0&cerca=1&punto=101805
1190,115,Ctra. Nacional 152 - Bifurcació,41.4670401,2.17902548,http://www.ambmobilitat.cat/Principales/DatosParada.aspx?linea=0&version=0&cerca=1&punto=000115
1199,1440,Pg. Vall d'Hebron - Scala Dei,41.439088,2.157768,http://www.ambmobilitat.cat/Principales/DatosParada.aspx?linea=0&version=0&cerca=1&punto=001440
1202,101826,Coll i Pujol - Anselm Clavé,41.44889296,2.2422033,http://www.ambmobilitat.cat/Principales/DatosParada.aspx?linea=0&version=0&cerca=1&punto=101826
1203,101828,Coll i Pujol - de la Selva,41.4522326,2.23833136,http://www.ambmobilitat.cat/Principales/DatosParada.aspx?linea=0&version=0&cerca=1&punto=101828
1204,101829,Coll i Pujol - Sant Joan de la Creu,41.45206501,2.23830708,http://www.ambmobilitat.cat/Principales/DatosParada.aspx?linea=0&version=0&cerca=1&punto=101829
1206,101831,Coll i Pujol - Vila Vall-Llebrera,41.45062459,2.24020045,http://www.ambmobilitat.cat/Principales/DatosParada.aspx?linea=0&version=0&cerca=1&punto=101831
1207,324,Ctra. de Collblanc - Albéniz,41.375966,2.105988,http://www.ambmobilitat.cat/Principales/DatosParada.aspx?linea=0&version=0&cerca=1&punto=000324
1208,906,Ctra. de Collblanc - Av. Tomás Giménez,41.376147,2.10344,http://www.ambmobilitat.cat/Principales/DatosParada.aspx?linea=0&version=0&cerca=1&punto=000906
1209,1259,Collblanc - Cardenal Reig,41.375919,2.114639,http://www.ambmobilitat.cat/Principales/DatosParada.aspx?linea=0&version=0&cerca=1&punto=001259
1210,905,Ctra. de Collblanc  - Av. Josep Molins,41.37619679,2.10663302,http://www.ambmobilitat.cat/Principales/DatosParada.aspx?linea=0&version=0&cerca=1&punto=000905
1211,1725,Complex Esportiu Hospitalet Nord,41.37653428,2.10161355,http://www.ambmobilitat.cat/Principales/DatosParada.aspx?linea=0&version=0&cerca=1&punto=001725
1212,1438,Ctra. de Collblanc - Pg. del Cementiri,41.37596989,2.11158294,http://www.ambmobilitat.cat/Principales/DatosParada.aspx?linea=0&version=0&cerca=1&punto=001438
1213,1239,Metro Collblanc,41.37569756,2.12000728,http://www.ambmobilitat.cat/Principales/DatosParada.aspx?linea=0&version=0&cerca=1&punto=001239
1214,831,Collblanc - Rosich,41.37576,2.114648,http://www.ambmobilitat.cat/Principales/DatosParada.aspx?linea=0&version=0&cerca=1&punto=000831
1216,101851,Les Colomeres - Pl. Font Groga,41.30788467,1.99892286,http://www.ambmobilitat.cat/Principales/DatosParada.aspx?linea=0&version=0&cerca=1&punto=101851
1220,54,Comte d'Urgell - Aragó,41.3846173,2.15553166,http://www.ambmobilitat.cat/Principales/DatosParada.aspx?linea=0&version=0&cerca=1&punto=000054
1234,235,Consell de Cent - Cartagena,41.403777,2.182747,http://www.ambmobilitat.cat/Principales/DatosParada.aspx?linea=0&version=0&cerca=1&punto=000235
1235,882,Consell de Cent - Meridiana,41.4065995,2.18651,http://www.ambmobilitat.cat/Principales/DatosParada.aspx?linea=0&version=0&cerca=1&punto=000882
1239,121,Còrsega - Bailèn,41.40133241,2.16559142,http://www.ambmobilitat.cat/Principales/DatosParada.aspx?linea=0&version=0&cerca=1&punto=000121
1240,1466,Còrsega - Hospital Clínic,41.389297,2.149643,http://www.ambmobilitat.cat/Principales/DatosParada.aspx?linea=0&version=0&cerca=1&punto=001466
1241,101882,Còrdova - Cabrera,41.46458542,2.20130305,http://www.ambmobilitat.cat/Principales/DatosParada.aspx?linea=0&version=0&cerca=1&punto=101882
1242,101883,Còrdova - Menorca,41.46455128,2.20400416,http://www.ambmobilitat.cat/Principales/DatosParada.aspx?linea=0&version=0&cerca=1&punto=101883
1243,101884,Còrdova 49-51,41.46296932,2.20019222,http://www.ambmobilitat.cat/Principales/DatosParada.aspx?linea=0&version=0&cerca=1&punto=101884
1244,101885,Còrdova 57-59,41.46188249,2.19985475,http://www.ambmobilitat.cat/Principales/DatosParada.aspx?linea=0&version=0&cerca=1&punto=101885
1245,101888,Cornellà - Ptge. Llunas,41.36576959,2.0872347,http://www.ambmobilitat.cat/Principales/DatosParada.aspx?linea=0&version=0&cerca=1&punto=101888
1246,930,Còrsega - Aribau,41.392177,2.153473,http://www.ambmobilitat.cat/Principales/DatosParada.aspx?linea=0&version=0&cerca=1&punto=000930
1248,1730,Mercat Ciutat Meridiana,41.462304,2.178201,http://www.ambmobilitat.cat/Principales/DatosParada.aspx?linea=0&version=0&cerca=1&punto=001730
1250,101897,Corts de Cadis - Ramón y Cajal,41.29076228,1.97953784,http://www.ambmobilitat.cat/Principales/DatosParada.aspx?linea=0&version=0&cerca=1&punto=101897
1251,392,Creu Coberta - Pl. Espanya,41.375145,2.1475427,http://www.ambmobilitat.cat/Principales/DatosParada.aspx?linea=0&version=0&cerca=1&punto=000392
1252,180,Creu Coberta - Pl. Espanya,41.37528619,2.14755864,http://www.ambmobilitat.cat/Principales/DatosParada.aspx?linea=0&version=0&cerca=1&punto=000180
1253,181,Metro Hostafrancs,41.375281,2.144563,http://www.ambmobilitat.cat/Principales/DatosParada.aspx?linea=0&version=0&cerca=1&punto=000181
1254,101905,Av. de la Generalitat - Creu d'En Muntaner,41.3733737,2.05760703,http://www.ambmobilitat.cat/Principales/DatosParada.aspx?linea=0&version=0&cerca=1&punto=101905
